{"type": "FeatureCollection", "features": [{"type": "Feature", "properties": {"zone": "pangyo", "stop_id": "GGB206000720", "source_ids": ["GGB206000720"], "name": "네오위즈.NHN", "city": "경기도 성남시", "managed_by": "경기BIS"}, "geometry": {"type": "Point", "coordinates": [127.1042667, 37.39995]}}, {"type": "Feature", "properties": {"zone": "pangyo", "stop_id": "GGB206000731", "source_ids": ["GGB206000731"], "name": "엔씨소프트.안랩", "city": "경기도 성남시", "managed_by": "경기BIS"}, "geometry": {"type": "Point", "coordinates": [127.1094667, 37.3994667]}}, {"type": "Feature", "properties": {"zone": "pangyo", "stop_id": "GGB206000744", "source_ids": ["GGB206000744"], "name": "이노밸리A동.오콘", "city": "경기도 성남시", "managed_by": "경기BIS"}, "geometry": {"type": "Point", "coordinates": [127.1005167, 37.40295]}}, {"type": "Feature", "properties": {"zone": "pangyo", "stop_id": "GGB206000745", "source_ids": ["GGB206000745"], "name": "판교PDCC.NS홈쇼핑", "city": "경기도 성남시", "managed_by": "경기BIS"}, "geometry": {"type": "Point", "coordinates": [127.1007833, 37.4025833]}}, {"type": "Feature", "properties": {"zone": "pangyo", "stop_id": "GGB206000801", "source_ids": ["GGB206000801"], "name": "판교세븐벤처밸리", "city": "경기도 성남시", "managed_by": "경기BIS"}, "geometry": {"type": "Point", "coordinates": [127.1002667, 37.4014333]}}, {"type": "Feature", "properties": {"zone": "pangyo", "stop_id": "GGB206000802", "source_ids": ["GGB206000802"], "name": "넥슨네트웍스.NHN.네오위즈", "city": "경기도 성남시", "managed_by": "경기BIS"}, "geometry": {"type": "Point", "coordinates": [127.10265, 37.4003667]}}, {"type": "Feature", "properties": {"zone": "pangyo", "stop_id": "GGB206000803", "source_ids": ["GGB206000803"], "name": "넥슨", "city": "경기도 성남시", "managed_by": "경기BIS"}, "geometry": {"type": "Point", "coordinates": [127.1026167, 37.4016833]}}, {"type": "Feature", "properties": {"zone": "pangyo", "stop_id": "GGB206000903", "source_ids": ["GGB206000903"], "name": "우주공원.코스맥스", "city": "경기도 성남시", "managed_by": "경기BIS"}, "geometry": {"type": "Point", "coordinates": [127.10185, 37.40435]}}, {"type": "Feature", "properties": {"zone": "pangyo", "stop_id": "GGB206000904", "source_ids": ["GGB206000904"], "name": "실리콘파크.삼성중공업", "city": "경기도 성남시", "managed_by": "경기BIS"}, "geometry": {"type": "Point", "coordinates": [127.0998, 37.40475]}}, {"type": "Feature", "properties": {"zone": "pangyo", "stop_id": "GGB206000126", "source_ids": ["GGB206000126"], "name": "판교세븐벤처밸리", "city": "경기도 성남시", "managed_by": "경기BIS"}, "geometry": {"type": "Point", "coordinates": [127.10045, 37.4015167]}}, {"type": "Feature", "properties": {"zone": "pangyo", "stop_id": "GGB206000139", "source_ids": ["GGB206000139"], "name": "차그룹컨소시엄", "city": "경기도 성남시", "managed_by": "경기BIS"}, "geometry": {"type": "Point", "coordinates": [127.1115, 37.40335]}}, {"type": "Feature", "properties": {"zone": "pangyo", "stop_id": "GGB206000539", "source_ids": ["GGB206000539", "SEB206000539"], "name": "금토천교", "city": "경기도 성남시", "managed_by": "경기BIS"}, "geometry": {"type": "Point", "coordinates": [127.1060333, 37.4013]}}, {"type": "Feature", "properties": {"zone": "pangyo", "stop_id": "GGB206000540", "source_ids": ["GGB206000540", "SEB206000540"], "name": "삼평교", "city": "경기도 성남시", "managed_by": "경기BIS"}, "geometry": {"type": "Point", "coordinates": [127.1047833, 37.4041333]}}, {"type": "Feature", "properties": {"zone": "pangyo", "stop_id": "GGB206000542", "source_ids": ["GGB206000542", "SEB206000542"], "name": "삼평교", "city": "경기도 성남시", "managed_by": "경기BIS"}, "geometry": {"type": "Point", "coordinates": [127.1041667, 37.4039167]}}, {"type": "Feature", "properties": {"zone": "pangyo", "stop_id": "GGB206000543", "source_ids": ["GGB206000543", "SEB206000543"], "name": "금토천교", "city": "경기도 성남시", "managed_by": "경기BIS"}, "geometry": {"type": "Point", "coordinates": [127.10555, 37.4012]}}, {"type": "Feature", "properties": {"zone": "pangyo", "stop_id": "GGB206000562", "source_ids": ["GGB206000562"], "name": "차그룹컨소시엄", "city": "경기도 성남시", "managed_by": "경기BIS"}, "geometry": {"type": "Point", "coordinates": [127.11095, 37.40335]}}, {"type": "Feature", "properties": {"zone": "pangyo", "stop_id": "GGB206000563", "source_ids": ["GGB206000563"], "name": "한국무역정보통신", "city": "경기도 성남시", "managed_by": "경기BIS"}, "geometry": {"type": "Point", "coordinates": [127.1109833, 37.4030833]}}, {"type": "Feature", "properties": {"zone": "pangyo", "stop_id": "GGB206000564", "source_ids": ["GGB206000564"], "name": "봇들육교", "city": "경기도 성남시", "managed_by": "경기BIS"}, "geometry": {"type": "Point", "coordinates": [127.1076667, 37.4033667]}}, {"type": "Feature", "properties": {"zone": "pangyo", "stop_id": "GGB206000565", "source_ids": ["GGB206000565"], "name": "유라코퍼레이션.SK케미칼", "city": "경기도 성남시", "managed_by": "경기BIS"}, "geometry": {"type": "Point", "coordinates": [127.1076833, 37.4030667]}}, {"type": "Feature", "properties": {"zone": "pangyo", "stop_id": "GGB206000566", "source_ids": ["GGB206000566"], "name": "이노밸리.포스코DX", "city": "경기도 성남시", "managed_by": "경기BIS"}, "geometry": {"type": "Point", "coordinates": [127.1030667, 37.4033667]}}, {"type": "Feature", "properties": {"zone": "pangyo", "stop_id": "GGB206000567", "source_ids": ["GGB206000567"], "name": "SK플래닛.판교디지털센터", "city": "경기도 성남시", "managed_by": "경기BIS"}, "geometry": {"type": "Point", "coordinates": [127.10315, 37.4030167]}}, {"type": "Feature", "properties": {"zone": "pangyo", "stop_id": "GGB206000578", "source_ids": ["GGB206000578"], "name": "봇들마을5단지", "city": "경기도 성남시", "managed_by": "경기BIS"}, "geometry": {"type": "Point", "coordinates": [127.11275, 37.4014]}}, {"type": "Feature", "properties": {"zone": "pangyo", "stop_id": "GGB206000582", "source_ids": ["GGB206000582"], "name": "메디포스트", "city": "경기도 성남시", "managed_by": "경기BIS"}, "geometry": {"type": "Point", "coordinates": [127.1087167, 37.39995]}}, {"type": "Feature", "properties": {"zone": "pangyo", "stop_id": "GGB206000583", "source_ids": ["GGB206000583"], "name": "NC소프트", "city": "경기도 성남시", "managed_by": "경기BIS"}, "geometry": {"type": "Point", "coordinates": [127.1086167, 37.3997333]}}, {"type": "Feature", "properties": {"zone": "pangyo", "stop_id": "GGB206000677", "source_ids": ["GGB206000677"], "name": "H스퀘어.삼환하이펙스", "city": "경기도 성남시", "managed_by": "경기BIS"}, "geometry": {"type": "Point", "coordinates": [127.10985, 37.4017833]}}, {"type": "Feature", "properties": {"zone": "pangyo", "stop_id": "GGB206000678", "source_ids": ["GGB206000678"], "name": "H스퀘어.삼환하이펙스", "city": "경기도 성남시", "managed_by": "경기BIS"}, "geometry": {"type": "Point", "coordinates": [127.10945, 37.40185]}}, {"type": "Feature", "properties": {"zone": "wirye", "stop_id": "GGB204000010", "source_ids": ["GGB204000010"], "name": "위례보미리즌빌", "city": "경기도 성남시", "managed_by": "경기BIS"}, "geometry": {"type": "Point", "coordinates": [127.1408167, 37.4717667]}}, {"type": "Feature", "properties": {"zone": "wirye", "stop_id": "GGB204000015", "source_ids": ["GGB204000015"], "name": "위례역푸르지오4단지", "city": "경기도 성남시", "managed_by": "경기BIS"}, "geometry": {"type": "Point", "coordinates": [127.14055, 37.4676167]}}, {"type": "Feature", "properties": {"zone": "wirye", "stop_id": "GGB204000032", "source_ids": ["GGB204000032", "SEB204000032"], "name": "남위례역.복정지구", "city": "경기도 성남시", "managed_by": "경기BIS"}, "geometry": {"type": "Point", "coordinates": [127.1412, 37.4626667]}}, {"type": "Feature", "properties": {"zone": "wirye", "stop_id": "GGB204000068", "source_ids": ["GGB204000068", "SEB204000068"], "name": "남위례역.성남여성인력개발센터", "city": "경기도 성남시", "managed_by": "경기BIS"}, "geometry": {"type": "Point", "coordinates": [127.13945, 37.46405]}}, {"type": "Feature", "properties": {"zone": "wirye", "stop_id": "GGB204000090", "source_ids": ["GGB204000090", "SEB204000090"], "name": "밀리토피아시티.위례역푸르지오", "city": "경기도 성남시", "managed_by": "경기BIS"}, "geometry": {"type": "Point", "coordinates": [127.14405, 37.46735]}}, {"type": "Feature", "properties": {"zone": "wirye", "stop_id": "GGB204000145", "source_ids": ["GGB204000145", "SEB204000145"], "name": "한화오벨리스크", "city": "경기도 성남시", "managed_by": "경기BIS"}, "geometry": {"type": "Point", "coordinates": [127.14095, 37.4737333]}}, {"type": "Feature", "properties": {"zone": "wirye", "stop_id": "GGB204000147", "source_ids": ["GGB204000147", "SEB204000147"], "name": "복정고등학교.복정지구", "city": "경기도 성남시", "managed_by": "경기BIS"}, "geometry": {"type": "Point", "coordinates": [127.1352667, 37.4658667]}}, {"type": "Feature", "properties": {"zone": "wirye", "stop_id": "GGB123000316", "source_ids": ["GGB123000316"], "name": "복정역환승센터1번승강장", "city": "서울특별시", "managed_by": "경기BIS"}, "geometry": {"type": "Point", "coordinates": [127.1272167, 37.4700333]}}, {"type": "Feature", "properties": {"zone": "wirye", "stop_id": "GGB123000436", "source_ids": ["GGB123000436", "SEB123000436"], "name": "복정역환승주차장", "city": "서울특별시", "managed_by": "경기BIS"}, "geometry": {"type": "Point", "coordinates": [127.1281333, 37.4707]}}, {"type": "Feature", "properties": {"zone": "wirye", "stop_id": "GGB123000576", "source_ids": ["GGB123000576", "SEB123000576"], "name": "위례아이파크아파트앞", "city": "서울특별시", "managed_by": "경기BIS"}, "geometry": {"type": "Point", "coordinates": [127.1411333, 37.4757167]}}, {"type": "Feature", "properties": {"zone": "wirye", "stop_id": "GGB123000613", "source_ids": ["GGB123000613", "SEB123000613"], "name": "위례중앙푸르지오.신안인스빌", "city": "서울특별시", "managed_by": "경기BIS"}, "geometry": {"type": "Point", "coordinates": [127.1433, 37.4748833]}}, {"type": "Feature", "properties": {"zone": "wirye", "stop_id": "GGB123000614", "source_ids": ["GGB123000614", "SEB123000614"], "name": "송파와이즈더샵.위례센트로엘", "city": "서울특별시", "managed_by": "경기BIS"}, "geometry": {"type": "Point", "coordinates": [127.1443833, 37.4776333]}}, {"type": "Feature", "properties": {"zone": "wirye", "stop_id": "GGB123000615", "source_ids": ["GGB123000615", "SEB123000615"], "name": "송파와이즈더샵.위례센트로엘", "city": "서울특별시", "managed_by": "경기BIS"}, "geometry": {"type": "Point", "coordinates": [127.1440833, 37.4771333]}}, {"type": "Feature", "properties": {"zone": "wirye", "stop_id": "GGB123000617", "source_ids": ["GGB123000617", "SEB123000617"], "name": "위례별초등학교.위례2차아이파크", "city": "서울특별시", "managed_by": "경기BIS"}, "geometry": {"type": "Point", "coordinates": [127.1442333, 37.4795833]}}, {"type": "Feature", "properties": {"zone": "wirye", "stop_id": "GGB123000618", "source_ids": ["GGB123000618", "SEB123000618"], "name": "위례동주민센터.위례스타힐스", "city": "서울특별시", "managed_by": "경기BIS"}, "geometry": {"type": "Point", "coordinates": [127.1435667, 37.4813167]}}, {"type": "Feature", "properties": {"zone": "wirye", "stop_id": "GGB123000619", "source_ids": ["GGB123000619", "SEB123000619"], "name": "위례동주민센터.위례송파푸르지오", "city": "서울특별시", "managed_by": "경기BIS"}, "geometry": {"type": "Point", "coordinates": [127.14285, 37.4815667]}}, {"type": "Feature", "properties": {"zone": "wirye", "stop_id": "GGB123000620", "source_ids": ["GGB123000620", "SEB123000620"], "name": "힐스테이트송파.송파더센트레", "city": "서울특별시", "managed_by": "경기BIS"}, "geometry": {"type": "Point", "coordinates": [127.1419167, 37.47945]}}, {"type": "Feature", "properties": {"zone": "wirye", "stop_id": "GGB123000637", "source_ids": ["GGB123000637", "SEB123000637"], "name": "서울위례별초교", "city": "서울특별시", "managed_by": "경기BIS"}, "geometry": {"type": "Point", "coordinates": [127.1438333, 37.4783167]}}, {"type": "Feature", "properties": {"zone": "wirye", "stop_id": "GGB123000650", "source_ids": ["GGB123000650", "SEB123000650"], "name": "세계로병원", "city": "서울특별시", "managed_by": "경기BIS"}, "geometry": {"type": "Point", "coordinates": [127.142, 37.48675]}}, {"type": "Feature", "properties": {"zone": "wirye", "stop_id": "GGB123000652", "source_ids": ["GGB123000652", "SEB123000652"], "name": "위례포레샤인18단지", "city": "서울특별시", "managed_by": "경기BIS"}, "geometry": {"type": "Point", "coordinates": [127.1524667, 37.48915]}}, {"type": "Feature", "properties": {"zone": "wirye", "stop_id": "GGB123000659", "source_ids": ["GGB123000659", "SEB123000659"], "name": "복정역환승센터2번승강장", "city": "서울특별시", "managed_by": "경기BIS"}, "geometry": {"type": "Point", "coordinates": [127.1272333, 37.4700333]}}, {"type": "Feature", "properties": {"zone": "wirye", "stop_id": "GGB123000660", "source_ids": ["GGB123000660", "SEB123000660"], "name": "복정역환승센터3번승강장", "city": "서울특별시", "managed_by": "경기BIS"}, "geometry": {"type": "Point", "coordinates": [127.1272667, 37.4700333]}}, {"type": "Feature", "properties": {"zone": "wirye", "stop_id": "GGB123000661", "source_ids": ["GGB123000661", "SEB123000661"], "name": "복정역환승센터4번승강장", "city": "서울특별시", "managed_by": "경기BIS"}, "geometry": {"type": "Point", "coordinates": [127.1272833, 37.4700333]}}, {"type": "Feature", "properties": {"zone": "wirye", "stop_id": "GGB123000667", "source_ids": ["GGB123000667", "SEB123000667"], "name": "서울위례별초교.위례별유치원", "city": "서울특별시", "managed_by": "경기BIS"}, "geometry": {"type": "Point", "coordinates": [127.1446167, 37.47805]}}, {"type": "Feature", "properties": {"zone": "wirye", "stop_id": "GGB123000669", "source_ids": ["GGB123000669"], "name": "북위례입구", "city": "서울특별시", "managed_by": "경기BIS"}, "geometry": {"type": "Point", "coordinates": [127.1567333, 37.48865]}}, {"type": "Feature", "properties": {"zone": "wirye", "stop_id": "GGB123000683", "source_ids": ["GGB123000683", "SEB123000683"], "name": "송례중학교.위례아이파크", "city": "서울특별시", "managed_by": "경기BIS"}, "geometry": {"type": "Point", "coordinates": [127.1418667, 37.4780333]}}, {"type": "Feature", "properties": {"zone": "wirye", "stop_id": "GGB204000236", "source_ids": ["GGB204000236", "SEB204000236"], "name": "성남시위례동행정복지센터.위례아트리버푸르지오", "city": "경기도 성남시", "managed_by": "경기BIS"}, "geometry": {"type": "Point", "coordinates": [127.1422833, 37.4708167]}}, {"type": "Feature", "properties": {"zone": "wirye", "stop_id": "GGB204000240", "source_ids": ["GGB204000240", "SEB204000240"], "name": "성남시위례동행정복지센터.위례보미리즌빌", "city": "경기도 성남시", "managed_by": "경기BIS"}, "geometry": {"type": "Point", "coordinates": [127.1416333, 37.4710833]}}, {"type": "Feature", "properties": {"zone": "wirye", "stop_id": "GGB204000308", "source_ids": ["GGB204000308", "SEB204000308"], "name": "위례서일로마을입구", "city": "경기도 성남시", "managed_by": "경기BIS"}, "geometry": {"type": "Point", "coordinates": [127.1367, 37.4666333]}}, {"type": "Feature", "properties": {"zone": "wirye", "stop_id": "GGB204000317", "source_ids": ["GGB204000317", "SEB204000317"], "name": "위례서일로마을입구", "city": "경기도 성남시", "managed_by": "경기BIS"}, "geometry": {"type": "Point", "coordinates": [127.1361667, 37.46665]}}, {"type": "Feature", "properties": {"zone": "wirye", "stop_id": "GGB204000322", "source_ids": ["GGB204000322", "SEB204000322"], "name": "위례자이", "city": "경기도 성남시", "managed_by": "경기BIS"}, "geometry": {"type": "Point", "coordinates": [127.1367167, 37.46995]}}, {"type": "Feature", "properties": {"zone": "wirye", "stop_id": "GGB204000329", "source_ids": ["GGB204000329", "SEB204000329"], "name": "위례35단지아파트", "city": "경기도 성남시", "managed_by": "경기BIS"}, "geometry": {"type": "Point", "coordinates": [127.1431167, 37.47215]}}, {"type": "Feature", "properties": {"zone": "wirye", "stop_id": "GGB204000330", "source_ids": ["GGB204000330", "SEB204000330"], "name": "남위례역.창곡교차로", "city": "경기도 성남시", "managed_by": "경기BIS"}, "geometry": {"type": "Point", "coordinates": [127.1417667, 37.4641667]}}, {"type": "Feature", "properties": {"zone": "wirye", "stop_id": "GGB204000331", "source_ids": ["GGB204000331", "SEB204000331"], "name": "남위례역.창곡교차로", "city": "경기도 성남시", "managed_by": "경기BIS"}, "geometry": {"type": "Point", "coordinates": [127.1413833, 37.4642]}}, {"type": "Feature", "properties": {"zone": "wirye", "stop_id": "GGB204000336", "source_ids": ["GGB204000336"], "name": "위례중앙초등학교.성남위례36단지", "city": "경기도 성남시", "managed_by": "경기BIS"}, "geometry": {"type": "Point", "coordinates": [127.1340833, 37.47115]}}, {"type": "Feature", "properties": {"zone": "wirye", "stop_id": "GGB227000358", "source_ids": ["GGB227000358"], "name": "위례메디프라자", "city": "경기도 하남시", "managed_by": "경기BIS"}, "geometry": {"type": "Point", "coordinates": [127.1572, 37.48775]}}, {"type": "Feature", "properties": {"zone": "wirye", "stop_id": "GGB227000673", "source_ids": ["GGB227000673"], "name": "위례초.위례중.효성해링턴타워", "city": "경기도 하남시", "managed_by": "경기BIS"}, "geometry": {"type": "Point", "coordinates": [127.1484667, 37.4780167]}}, {"type": "Feature", "properties": {"zone": "wirye", "stop_id": "GGB227000685", "source_ids": ["GGB227000685", "SEB227000685"], "name": "스타필드시티.위례지웰푸르지오.하남시위례도서관", "city": "경기도 하남시", "managed_by": "경기BIS"}, "geometry": {"type": "Point", "coordinates": [127.1478, 37.4800667]}}, {"type": "Feature", "properties": {"zone": "wirye", "stop_id": "SEB123000672", "source_ids": ["SEB123000672"], "name": "포레나송파정문", "city": "서울특별시", "managed_by": "서울BIS"}, "geometry": {"type": "Point", "coordinates": [127.1475593, 37.486704]}}, {"type": "Feature", "properties": {"zone": "wirye", "stop_id": "SEB227000370", "source_ids": ["SEB227000370"], "name": "하남시위례도서관", "city": "서울특별시", "managed_by": "서울BIS"}, "geometry": {"type": "Point", "coordinates": [127.1479321, 37.4815978]}}, {"type": "Feature", "properties": {"zone": "wirye", "stop_id": "SEB123000665", "source_ids": ["SEB123000665"], "name": "위례호반써밋", "city": "서울특별시", "managed_by": "서울BIS"}, "geometry": {"type": "Point", "coordinates": [127.1496482, 37.4843211]}}, {"type": "Feature", "properties": {"zone": "wirye", "stop_id": "SEB123000215", "source_ids": ["SEB123000215"], "name": "복정역1번출구", "city": "서울특별시", "managed_by": "서울BIS"}, "geometry": {"type": "Point", "coordinates": [127.1271368, 37.4723236]}}]}