{
  "version": 0.6,
  "generator": "Overpass API 0.7.62.11 87bfad18",
  "osm3s": {
    "timestamp_osm_base": "2026-06-20T09:07:01Z",
    "copyright": "The data included in this document is from www.openstreetmap.org. The data is made available under ODbL."
  },
  "elements": [
    {
      "type": "node",
      "id": 302151955,
      "lat": 37.29871,
      "lon": 127.05253,
      "tags": {
        "highway": "motorway_junction",
        "name": "동수원",
        "name:en": "East Suwon",
        "name:ko": "동수원",
        "ref": "12",
        "wikidata": "Q10858497",
        "wikipedia": "ko:동수원 나들목"
      }
    },
    {
      "type": "node",
      "id": 302282296,
      "lat": 37.2291024,
      "lon": 127.4288845,
      "tags": {
        "highway": "motorway_junction",
        "name": "호법분기점",
        "name:en": "Hobeop JC",
        "name:ko": "호법분기점",
        "ref": "36"
      }
    },
    {
      "type": "node",
      "id": 302284199,
      "lat": 37.2471939,
      "lon": 127.2384669,
      "tags": {
        "highway": "motorway_junction",
        "name": "용인 휴게소 (강릉 방향)",
        "name:en": "Yongin Service Station (To Gangneung)",
        "name:ko": "용인 휴게소 (강릉 방향)",
        "noref": "yes"
      }
    },
    {
      "type": "node",
      "id": 387153879,
      "lat": 37.5256176,
      "lon": 126.95348,
      "tags": {
        "highway": "motorway_junction",
        "name": "한강대교 북단",
        "name:ko": "한강대교 북단",
        "ref": "13"
      }
    },
    {
      "type": "node",
      "id": 387153882,
      "lat": 37.523062,
      "lon": 126.9565016,
      "tags": {
        "highway": "motorway_junction",
        "name": "한강공원입구",
        "name:ko": "한강공원입구",
        "ref": "J-1"
      }
    },
    {
      "type": "node",
      "id": 387154518,
      "lat": 37.5476409,
      "lon": 126.9079478,
      "tags": {
        "highway": "motorway_junction",
        "name": "양화대교북단",
        "ref": "9B"
      }
    },
    {
      "type": "node",
      "id": 387154698,
      "lat": 37.5462638,
      "lon": 126.9082783,
      "tags": {
        "highway": "motorway_junction",
        "name": "양화대교 북단",
        "ref": "9B"
      }
    },
    {
      "type": "node",
      "id": 387154721,
      "lat": 37.5455772,
      "lon": 126.9105101,
      "tags": {
        "highway": "motorway_junction",
        "name": "양화대교북단",
        "ref": "9A"
      }
    },
    {
      "type": "node",
      "id": 436210017,
      "lat": 37.295386,
      "lon": 127.103562,
      "tags": {
        "highway": "motorway_junction",
        "name": "신갈분기점",
        "name:en": "Singal JC",
        "name:ko": "신갈분기점",
        "ref": "45A;45B"
      }
    },
    {
      "type": "node",
      "id": 436210332,
      "lat": 37.2906077,
      "lon": 127.1077094,
      "tags": {
        "highway": "motorway_junction",
        "name": "신갈분기점",
        "name:en": "Singal JC",
        "name:ko": "신갈분기점",
        "ref": "13A"
      }
    },
    {
      "type": "node",
      "id": 436212007,
      "lat": 37.2383073,
      "lon": 127.1055084,
      "tags": {
        "highway": "motorway_junction",
        "name": "기흥 휴게소 (부산 방향)",
        "name:en": "Giheung Service Station (To Busan)",
        "name:ko": "기흥 휴게소 (부산 방향)",
        "noref": "yes"
      }
    },
    {
      "type": "node",
      "id": 436220650,
      "lat": 37.2899789,
      "lon": 127.1041909,
      "tags": {
        "highway": "motorway_junction",
        "name": "신갈분기점",
        "name:en": "Singal JC",
        "name:ko": "신갈분기점",
        "ref": "13B"
      }
    },
    {
      "type": "node",
      "id": 436249439,
      "lat": 37.5442625,
      "lon": 127.1817588,
      "tags": {
        "highway": "motorway_junction",
        "name": "상일",
        "name:en": "Sangil",
        "name:ko": "상일",
        "ref": "6",
        "wikidata": "Q12600512",
        "wikipedia": "ko:상일 나들목"
      }
    },
    {
      "type": "node",
      "id": 436249463,
      "lat": 37.5544918,
      "lon": 127.1767505,
      "tags": {
        "highway": "motorway_junction",
        "name": "상일",
        "name:en": "Sangil",
        "name:ko": "상일",
        "ref": "6",
        "wikidata": "Q12600512",
        "wikipedia": "ko:상일 나들목"
      }
    },
    {
      "type": "node",
      "id": 436249639,
      "lat": 37.5131348,
      "lon": 127.1545877,
      "tags": {
        "highway": "motorway_junction",
        "name": "서하남",
        "name:en": "West Hanam",
        "name:ko": "서하남",
        "ref": "4",
        "wikidata": "Q16097803",
        "wikipedia": "ko:서하남 나들목"
      }
    },
    {
      "type": "node",
      "id": 436249684,
      "lat": 37.5317595,
      "lon": 127.2012704,
      "tags": {
        "highway": "motorway_junction",
        "name": "하남분기점",
        "name:en": "Hanam Junction",
        "name:ko": "하남분기점",
        "ref": "43",
        "wikidata": "Q11553537",
        "wikipedia": "ko:하남 분기점"
      }
    },
    {
      "type": "node",
      "id": 436252232,
      "lat": 37.5685892,
      "lon": 127.1694178,
      "tags": {
        "highway": "motorway_junction",
        "name": "강일",
        "name:en": "Gangil",
        "name:ko": "강일",
        "old_name": "하일",
        "ref": "7",
        "wikidata": "Q12583073",
        "wikipedia": "ko:강일 나들목"
      }
    },
    {
      "type": "node",
      "id": 436252270,
      "lat": 37.5325117,
      "lon": 127.1926941,
      "tags": {
        "highway": "motorway_junction",
        "name": "하남분기점",
        "name:en": "Hanam Junction",
        "name:ko": "하남분기점",
        "ref": "5",
        "wikidata": "Q11553537",
        "wikipedia": "ko:하남 분기점"
      }
    },
    {
      "type": "node",
      "id": 436252672,
      "lat": 37.5743224,
      "lon": 127.1639871,
      "tags": {
        "highway": "motorway_junction",
        "name": "강일",
        "name:en": "Gangil",
        "name:ko": "강일",
        "old_name": "하일",
        "ref": "7A",
        "wikidata": "Q12583073",
        "wikipedia": "ko:강일 나들목"
      }
    },
    {
      "type": "node",
      "id": 436255454,
      "lat": 37.6547773,
      "lon": 126.8163464,
      "tags": {
        "highway": "motorway_junction",
        "name": "고양",
        "name:en": "Goyang",
        "name:ko": "고양",
        "ref": "17",
        "wikidata": "Q12584320",
        "wikipedia": "ko:고양 나들목"
      }
    },
    {
      "type": "node",
      "id": 436255592,
      "lat": 37.6683526,
      "lon": 126.8487911,
      "tags": {
        "highway": "motorway_junction",
        "name": "고양분기점",
        "name:el": "Κόμβος (JC) Γκόγιανγκ",
        "name:en": "Goyang Junction",
        "name:ko": "고양분기점",
        "ref": "16-1",
        "start_date": "2020-11-07"
      }
    },
    {
      "type": "node",
      "id": 436255640,
      "lat": 37.67472,
      "lon": 126.87675,
      "tags": {
        "highway": "motorway_junction",
        "name": "통일로",
        "name:en": "Tongillo",
        "name:ko": "통일로",
        "ref": "16",
        "wikidata": "Q12621257",
        "wikipedia": "ko:통일로 나들목"
      }
    },
    {
      "type": "node",
      "id": 436257020,
      "lat": 37.6948035,
      "lon": 127.0521634,
      "tags": {
        "highway": "motorway_junction",
        "name": "의정부",
        "name:en": "Uijeongbu",
        "name:ja": "議政府",
        "name:ko": "의정부",
        "ref": "14",
        "wikidata": "Q12610785",
        "wikipedia": "ko:의정부 나들목"
      }
    },
    {
      "type": "node",
      "id": 436257553,
      "lat": 37.6639131,
      "lon": 127.1138583,
      "tags": {
        "highway": "motorway_junction",
        "name": "별내",
        "name:en": "Byeollae",
        "name:ko": "별내",
        "ref": "13",
        "wikidata": "Q16096603",
        "wikipedia": "ko:별내 나들목"
      }
    },
    {
      "type": "node",
      "id": 436258155,
      "lat": 37.697153,
      "lon": 127.0481923,
      "tags": {
        "highway": "motorway_junction",
        "name": "의정부",
        "name:en": "Uijeongbu",
        "name:ko": "의정부",
        "ref": "14",
        "wikidata": "Q12610785",
        "wikipedia": "ko:의정부 나들목"
      }
    },
    {
      "type": "node",
      "id": 436258288,
      "lat": 37.5999287,
      "lon": 127.1549446,
      "tags": {
        "highway": "motorway_junction",
        "name": "남양주",
        "name:en": "Namyangju",
        "name:ko": "남양주",
        "ref": "9",
        "wikidata": "Q12589927",
        "wikipedia": "ko:남양주 나들목"
      }
    },
    {
      "type": "node",
      "id": 436259960,
      "lat": 37.4282978,
      "lon": 126.8957794,
      "tags": {
        "destination": "인천;광명",
        "highway": "motorway_junction",
        "name": "일직분기점",
        "name:en": "Iljik JC",
        "name:ko": "일직분기점",
        "ref": "36A",
        "wikidata": "Q11267877",
        "wikipedia": "ko:일직 분기점"
      }
    },
    {
      "type": "node",
      "id": 436259994,
      "lat": 37.4182694,
      "lon": 126.8933944,
      "tags": {
        "destination": "인천;안양",
        "highway": "motorway_junction",
        "name": "일직분기점",
        "name:en": "Iljik JC",
        "name:ko": "일직분기점",
        "ref": "36A;36B",
        "wikidata": "Q11267877",
        "wikipedia": "ko:일직 분기점"
      }
    },
    {
      "type": "node",
      "id": 436261413,
      "lat": 37.2806328,
      "lon": 126.8984899,
      "tags": {
        "highway": "motorway_junction",
        "name": "매송IC",
        "name:en": "Maesong IC",
        "name:ko": "매송IC",
        "ref": "31"
      }
    },
    {
      "type": "node",
      "id": 436264440,
      "lat": 37.3936981,
      "lon": 126.8706628,
      "tags": {
        "highway": "motorway_junction",
        "name": "목감",
        "name:en": "Mokgam",
        "name:ko": "목감",
        "ref": "34",
        "wikidata": "Q12595340",
        "wikipedia": "ko:목감 나들목"
      }
    },
    {
      "type": "node",
      "id": 436264633,
      "lat": 37.3084277,
      "lon": 126.8952843,
      "tags": {
        "highway": "motorway_junction",
        "name": "팔곡분기점",
        "name:en": "Palgok JC",
        "name:ko": "팔곡분기점",
        "ref": "31-1"
      }
    },
    {
      "type": "node",
      "id": 436275998,
      "lat": 37.23998,
      "lon": 127.3943839,
      "tags": {
        "highway": "motorway_junction",
        "name": "덕평자연휴게소",
        "name:en": "Deokpyeong Natual Service Station",
        "name:ko": "덕평자연휴게소",
        "noref": "yes"
      }
    },
    {
      "type": "node",
      "id": 436276521,
      "lat": 37.2349935,
      "lon": 127.4385387,
      "tags": {
        "highway": "motorway_junction",
        "name": "호법분기점",
        "name:en": "Hobeop Junction",
        "name:ko": "호법분기점",
        "ref": "21A"
      }
    },
    {
      "type": "node",
      "id": 436276740,
      "lat": 37.3169457,
      "lon": 126.9948445,
      "tags": {
        "highway": "motorway_junction",
        "name": "북수원IC",
        "name:en": "N.Suwon IC",
        "name:ko": "북수원IC",
        "ref": "11"
      }
    },
    {
      "type": "node",
      "id": 436276861,
      "lat": 37.2897257,
      "lon": 127.0999108,
      "tags": {
        "highway": "motorway_junction",
        "name": "신갈분기점",
        "name:en": "Singal JC",
        "name:ko": "신갈분기점",
        "ref": "13A"
      }
    },
    {
      "type": "node",
      "id": 436278727,
      "lat": 37.2467955,
      "lon": 127.2419102,
      "tags": {
        "highway": "motorway_junction",
        "name": "용인 휴게소 (인천 방향)",
        "name:en": "Yongin Service Station (To Incheon)",
        "name:ko": "용인 휴게소 (인천 방향)",
        "noref": "yes"
      }
    },
    {
      "type": "node",
      "id": 436278782,
      "lat": 37.2388856,
      "lon": 127.2905546,
      "tags": {
        "highway": "motorway_junction",
        "name": "양지IC",
        "name:en": "Yangji IC",
        "name:ko": "양지IC",
        "ref": "19"
      }
    },
    {
      "type": "node",
      "id": 436281267,
      "lat": 37.3452498,
      "lon": 126.85671,
      "tags": {
        "highway": "motorway_junction",
        "name": "안산분기점",
        "name:en": "Ansan JC",
        "name:ko": "안산분기점",
        "ref": "6"
      }
    },
    {
      "type": "node",
      "id": 436284187,
      "lat": 37.239621,
      "lon": 127.4192063,
      "tags": {
        "highway": "motorway_junction",
        "name": "호법분기점",
        "name:en": "Hobeop JC",
        "name:ko": "호법분기점",
        "ref": "21"
      }
    },
    {
      "type": "node",
      "id": 436286601,
      "lat": 37.4654316,
      "lon": 127.0902385,
      "tags": {
        "highway": "motorway_junction",
        "name": "헌릉",
        "name:en": "Heolleung",
        "name:ko": "헌릉",
        "ref": "7",
        "wikidata": "Q4742958",
        "wikipedia": "ko:헌릉 나들목"
      }
    },
    {
      "type": "node",
      "id": 436286712,
      "lat": 37.4219132,
      "lon": 127.089565,
      "tags": {
        "highway": "motorway_junction",
        "name": "고등",
        "name:en": "Godeung",
        "name:ko": "고등",
        "ref": "6",
        "wikidata": "Q4742950",
        "wikipedia": "ko:고등 나들목"
      }
    },
    {
      "type": "node",
      "id": 436286928,
      "lat": 37.3311029,
      "lon": 127.0588768,
      "tags": {
        "highway": "motorway_junction",
        "name": "서수지",
        "name:en": "West Suji",
        "name:ko": "서수지",
        "ref": "3",
        "wikidata": "Q12601006",
        "wikipedia": "ko:서수지 나들목"
      }
    },
    {
      "type": "node",
      "id": 436287226,
      "lat": 37.2785573,
      "lon": 127.0795773,
      "tags": {
        "highway": "motorway_junction",
        "name": "흥덕",
        "name:en": "Heungdeok",
        "name:ko": "흥덕",
        "ref": "1",
        "wikidata": "Q4742909",
        "wikipedia": "ko:흥덕 나들목"
      }
    },
    {
      "type": "node",
      "id": 436293907,
      "lat": 37.4246528,
      "lon": 126.8891158,
      "tags": {
        "destination": "15;목포,성산대교;100;서울외곽선",
        "exit_to": "성산대교;목포",
        "highway": "motorway_junction",
        "name": "일직분기점",
        "name:en": "Iljik JC",
        "name:ko": "일직분기점",
        "ref": "13A;13B",
        "wikidata": "Q11267877",
        "wikipedia": "ko:일직 분기점"
      }
    },
    {
      "type": "node",
      "id": 436293979,
      "lat": 37.4383119,
      "lon": 126.8559882,
      "tags": {
        "highway": "motorway_junction",
        "name": "광명 나들목",
        "name:en": "Gwangmyeong IC",
        "name:ko": "광명 나들목",
        "ref": "12",
        "wikidata": "Q12584989",
        "wikipedia": "ko:광명 나들목"
      }
    },
    {
      "type": "node",
      "id": 436294275,
      "lat": 37.4401506,
      "lon": 126.8467494,
      "tags": {
        "highway": "motorway_junction",
        "name": "광명 나들목",
        "name:en": "Gwangmyeong IC",
        "name:ko": "광명 나들목",
        "ref": "12",
        "wikidata": "Q12584989",
        "wikipedia": "ko:광명 나들목"
      }
    },
    {
      "type": "node",
      "id": 436294752,
      "lat": 37.2626806,
      "lon": 127.4089246,
      "tags": {
        "highway": "motorway_junction",
        "name": "마장분기점",
        "name:en": "Majang JC",
        "name:ko": "마장분기점",
        "ref": "37"
      }
    },
    {
      "type": "node",
      "id": 436294800,
      "lat": 37.2800756,
      "lon": 127.387983,
      "tags": {
        "highway": "motorway_junction",
        "name": "서이천IC",
        "name:en": "W.Icheon IC",
        "name:ko": "서이천IC",
        "ref": "38"
      }
    },
    {
      "type": "node",
      "id": 436294829,
      "lat": 37.2736722,
      "lon": 127.3952933,
      "tags": {
        "highway": "motorway_junction",
        "name": "서이천IC",
        "name:en": "W.Icheon IC",
        "name:ko": "서이천IC",
        "ref": "38"
      }
    },
    {
      "type": "node",
      "id": 436294856,
      "lat": 37.2571615,
      "lon": 127.4122025,
      "tags": {
        "highway": "motorway_junction",
        "name": "마장분기점",
        "name:en": "Majang JC",
        "name:ko": "마장분기점",
        "ref": "37"
      }
    },
    {
      "type": "node",
      "id": 436295317,
      "lat": 37.3491068,
      "lon": 127.3222843,
      "tags": {
        "highway": "motorway_junction",
        "name": "곤지암IC",
        "name:en": "Gonjiam IC",
        "name:ko": "곤지암IC",
        "ref": "39"
      }
    },
    {
      "type": "node",
      "id": 436295464,
      "lat": 37.4461248,
      "lon": 127.2755812,
      "tags": {
        "alt_name": "경기광주IC",
        "highway": "motorway_junction",
        "name": "광주IC",
        "name:en": "Gwangju IC",
        "name:ko": "광주IC",
        "ref": "40"
      }
    },
    {
      "type": "node",
      "id": 436295682,
      "lat": 37.3517654,
      "lon": 127.3211302,
      "tags": {
        "highway": "motorway_junction",
        "name": "곤지암IC",
        "name:en": "Gonjiam IC",
        "name:ko": "곤지암IC",
        "ref": "39"
      }
    },
    {
      "type": "node",
      "id": 436295800,
      "lat": 37.5227481,
      "lon": 127.2205329,
      "tags": {
        "highway": "motorway_junction",
        "name": "하남IC",
        "name:en": "Hanam IC",
        "name:ko": "하남IC",
        "ref": "42"
      }
    },
    {
      "type": "node",
      "id": 436296524,
      "lat": 37.485169,
      "lon": 127.2406137,
      "tags": {
        "highway": "motorway_junction",
        "name": "산곡분기점",
        "name:en": "Sangok JC",
        "name:ko": "산곡분기점",
        "ref": "41"
      }
    },
    {
      "type": "node",
      "id": 436393421,
      "lat": 37.4674393,
      "lon": 126.8845418,
      "tags": {
        "highway": "motorway_junction",
        "name": "금천교교차로"
      }
    },
    {
      "type": "node",
      "id": 436690278,
      "lat": 37.6495073,
      "lon": 127.1953581,
      "tags": {
        "highway": "motorway_junction",
        "name": "사릉IC",
        "name:ko": "사릉IC"
      }
    },
    {
      "type": "node",
      "id": 436719107,
      "lat": 37.6098276,
      "lon": 127.182102,
      "tags": {
        "highway": "motorway_junction",
        "name": "도농IC"
      }
    },
    {
      "type": "node",
      "id": 436760119,
      "lat": 37.5350199,
      "lon": 126.9435399,
      "tags": {
        "highway": "motorway_junction",
        "name": "마포대교 북단",
        "ref": "11A"
      }
    },
    {
      "type": "node",
      "id": 436760313,
      "lat": 37.5190235,
      "lon": 126.9691494,
      "tags": {
        "highway": "motorway_junction",
        "name": "한강대교 북단",
        "ref": "13"
      }
    },
    {
      "type": "node",
      "id": 436760314,
      "lat": 37.5184089,
      "lon": 126.970468,
      "tags": {
        "highway": "motorway_junction",
        "name": "한강대교 북단",
        "ref": "13"
      }
    },
    {
      "type": "node",
      "id": 436761711,
      "lat": 37.5547105,
      "lon": 127.0682379,
      "tags": {
        "highway": "motorway_junction",
        "name": "군자교",
        "name:ko": "군자교"
      }
    },
    {
      "type": "node",
      "id": 436761751,
      "lat": 37.566447,
      "lon": 127.0746857,
      "tags": {
        "highway": "motorway_junction",
        "name": "군자교",
        "name:ko": "군자교"
      }
    },
    {
      "type": "node",
      "id": 436761792,
      "lat": 37.5977676,
      "lon": 127.0689136,
      "tags": {
        "highway": "motorway_junction",
        "name": "중랑교",
        "name:ko": "중랑교"
      }
    },
    {
      "type": "node",
      "id": 436761821,
      "lat": 37.6220578,
      "lon": 127.0698628,
      "tags": {
        "highway": "motorway_junction",
        "name": "월릉교",
        "name:ko": "월릉교"
      }
    },
    {
      "type": "node",
      "id": 436761923,
      "lat": 37.6599757,
      "lon": 127.0528038,
      "tags": {
        "highway": "motorway_junction",
        "name": "상계교",
        "name:ko": "상계교"
      }
    },
    {
      "type": "node",
      "id": 436762058,
      "lat": 37.6090679,
      "lon": 127.0725453,
      "tags": {
        "highway": "motorway_junction",
        "name": "월릉교",
        "name:ko": "월릉교"
      }
    },
    {
      "type": "node",
      "id": 436762819,
      "lat": 37.6150796,
      "lon": 127.1051983,
      "tags": {
        "highway": "motorway_junction",
        "name": "신내IC"
      }
    },
    {
      "type": "node",
      "id": 436762881,
      "lat": 37.6176831,
      "lon": 127.0923844,
      "tags": {
        "highway": "motorway_junction",
        "name": "묵동IC"
      }
    },
    {
      "type": "node",
      "id": 436763814,
      "lat": 37.506697,
      "lon": 126.9909208,
      "tags": {
        "highway": "motorway_junction",
        "name": "동작대교남단"
      }
    },
    {
      "type": "node",
      "id": 436831356,
      "lat": 37.5628912,
      "lon": 127.049335,
      "tags": {
        "highway": "motorway_junction",
        "name": "사근",
        "name:en": "Sageun",
        "name:ko": "사근",
        "ref": "11"
      }
    },
    {
      "type": "node",
      "id": 436838345,
      "lat": 37.5334291,
      "lon": 127.0229525,
      "tags": {
        "highway": "motorway_junction",
        "name": "동호대교 분기점"
      }
    },
    {
      "type": "node",
      "id": 436871183,
      "lat": 37.6062024,
      "lon": 127.0074263,
      "tags": {
        "highway": "motorway_junction",
        "name": "정릉",
        "name:ko": "정릉",
        "ref": "5"
      }
    },
    {
      "type": "node",
      "id": 437298518,
      "lat": 37.4499176,
      "lon": 127.0071275,
      "tags": {
        "highway": "motorway_junction",
        "name": "광창",
        "note": "교차로 이름이 표지판에 적혀있지 않아 임시로 IC를 부기함."
      }
    },
    {
      "type": "node",
      "id": 445273230,
      "lat": 37.5278458,
      "lon": 127.1950375,
      "tags": {
        "highway": "motorway_junction",
        "name": "하남분기점",
        "name:en": "Hanam Junction",
        "name:ko": "하남분기점",
        "ref": "5",
        "wikidata": "Q11553537",
        "wikipedia": "ko:하남 분기점"
      }
    },
    {
      "type": "node",
      "id": 498837378,
      "lat": 37.6417861,
      "lon": 127.1319138,
      "tags": {
        "highway": "motorway_junction",
        "name": "퇴계원",
        "name:en": "Toegyewon",
        "name:ko": "퇴계원",
        "ref": "12",
        "wikidata": "Q16098292",
        "wikipedia": "ko:퇴계원 나들목"
      }
    },
    {
      "type": "node",
      "id": 504037300,
      "lat": 37.3251223,
      "lon": 126.920381,
      "tags": {
        "highway": "motorway_junction",
        "name": "군포",
        "name:en": "Gunpo",
        "name:ko": "군포",
        "ref": "8"
      }
    },
    {
      "type": "node",
      "id": 506868349,
      "lat": 37.349713,
      "lon": 126.8602304,
      "tags": {
        "highway": "motorway_junction",
        "name": "안산분기점",
        "name:en": "Ansan JC",
        "name:ko": "안산분기점",
        "ref": "32"
      }
    },
    {
      "type": "node",
      "id": 506868374,
      "lat": 37.3432025,
      "lon": 126.865427,
      "tags": {
        "highway": "motorway_junction",
        "name": "안산분기점",
        "name:en": "Ansan JC",
        "name:ko": "안산분기점",
        "ref": "6"
      }
    },
    {
      "type": "node",
      "id": 548042850,
      "lat": 37.2312354,
      "lon": 127.4284449,
      "tags": {
        "highway": "motorway_junction",
        "name": "호법분기점",
        "name:en": "Hobeop Junction",
        "name:ko": "호법분기점",
        "ref": "36"
      }
    },
    {
      "type": "node",
      "id": 548043037,
      "lat": 37.2408554,
      "lon": 127.4251626,
      "tags": {
        "highway": "motorway_junction",
        "name": "호법분기점",
        "name:en": "Hobeop JC",
        "name:ko": "호법분기점",
        "ref": "36"
      }
    },
    {
      "type": "node",
      "id": 558856668,
      "lat": 37.2170605,
      "lon": 127.0975883,
      "tags": {
        "highway": "motorway_junction",
        "name": "기흥(동탄)",
        "name:en": "Giheung(Dongtan)",
        "name:ko": "기흥(동탄)",
        "ref": "43",
        "wikidata": "Q2924673",
        "wikipedia": "ko:기흥동탄 나들목"
      }
    },
    {
      "type": "node",
      "id": 558856724,
      "lat": 37.2185447,
      "lon": 127.0981795,
      "tags": {
        "highway": "motorway_junction",
        "name": "기흥(동탄)",
        "name:en": "Giheung(Dongtan)",
        "name:ko": "기흥(동탄)",
        "ref": "43B",
        "wikidata": "Q2924673",
        "wikipedia": "ko:기흥동탄 나들목"
      }
    },
    {
      "type": "node",
      "id": 558884021,
      "lat": 37.2668015,
      "lon": 127.1036946,
      "tags": {
        "highway": "motorway_junction",
        "name": "수원신갈",
        "name:en": "Suwon-Singal",
        "name:ko": "수원신갈",
        "ref": "44"
      }
    },
    {
      "type": "node",
      "id": 558884038,
      "lat": 37.2831502,
      "lon": 127.1038497,
      "tags": {
        "highway": "motorway_junction",
        "name": "신갈분기점",
        "name:en": "Singal JC",
        "name:ko": "신갈분기점",
        "ref": "45A;45B"
      }
    },
    {
      "type": "node",
      "id": 558899141,
      "lat": 37.3303789,
      "lon": 127.1036042,
      "tags": {
        "highway": "motorway_junction",
        "name": "죽전휴게소",
        "name:en": "Jukjeon Service Station",
        "name:ko": "죽전휴게소",
        "noref": "yes"
      }
    },
    {
      "type": "node",
      "id": 580529021,
      "lat": 37.2417442,
      "lon": 126.8820531,
      "tags": {
        "highway": "motorway_junction",
        "name": "비봉",
        "name:en": "Bibong",
        "name:ko": "비봉",
        "ref": "30",
        "wikidata": "Q16096915",
        "wikipedia": "ko:비봉 나들목"
      }
    },
    {
      "type": "node",
      "id": 580529056,
      "lat": 37.243416,
      "lon": 126.8821481,
      "tags": {
        "highway": "motorway_junction",
        "name": "비봉",
        "name:en": "Bibong",
        "name:ko": "비봉",
        "ref": "30",
        "wikidata": "Q16096915",
        "wikipedia": "ko:비봉 나들목"
      }
    },
    {
      "type": "node",
      "id": 580529883,
      "lat": 37.2777355,
      "lon": 126.897457,
      "tags": {
        "highway": "motorway_junction",
        "name": "매송IC",
        "name:en": "Maesong IC",
        "name:ko": "매송IC",
        "ref": "31"
      }
    },
    {
      "type": "node",
      "id": 580656209,
      "lat": 37.3672931,
      "lon": 126.8700095,
      "tags": {
        "highway": "motorway_junction",
        "name": "조남분기점",
        "name:en": "Jonam Junction",
        "name:ko": "조남분기점",
        "ref": "33A;33B",
        "wikidata": "Q11270947",
        "wikipedia": "ko:조남 분기점"
      }
    },
    {
      "type": "node",
      "id": 581730031,
      "lat": 37.4037238,
      "lon": 126.878592,
      "tags": {
        "highway": "motorway_junction",
        "name": "광명역",
        "name:en": "Gwangmyeong Station",
        "name:ko": "광명역",
        "ref": "35",
        "wikidata": "Q12584998",
        "wikipedia": "ko:광명역 나들목"
      }
    },
    {
      "type": "node",
      "id": 581730795,
      "lat": 37.4231821,
      "lon": 126.8916087,
      "tags": {
        "exit_to": "성산대교;목포",
        "highway": "motorway_junction",
        "name": "일직분기점",
        "name:en": "Iljik JC",
        "name:ko": "일직분기점",
        "ref": "13A;13B",
        "wikidata": "Q11267877",
        "wikipedia": "ko:일직 분기점"
      }
    },
    {
      "type": "node",
      "id": 581731175,
      "lat": 37.4215967,
      "lon": 126.8950878,
      "tags": {
        "destination": "인천;안양",
        "highway": "motorway_junction",
        "name": "일직분기점",
        "name:en": "Iljik JC",
        "name:ko": "일직분기점",
        "ref": "36A;36B",
        "wikidata": "Q11267877",
        "wikipedia": "ko:일직 분기점"
      }
    },
    {
      "type": "node",
      "id": 581731521,
      "lat": 37.4237024,
      "lon": 126.897438,
      "tags": {
        "highway": "motorway_junction",
        "name": "일직 분기점",
        "name:en": "Iljik JC",
        "name:ko": "일직 분기점",
        "ref": "13",
        "wikidata": "Q11267877",
        "wikipedia": "ko:일직 분기점"
      }
    },
    {
      "type": "node",
      "id": 581732355,
      "lat": 37.4338137,
      "lon": 126.8983396,
      "tags": {
        "destination": "수서",
        "highway": "motorway_junction",
        "name": "소하분기점",
        "name:en": "Soha JC",
        "name:ko": "소하분기점",
        "ref": "37",
        "wikidata": "Q25918162",
        "wikipedia": "ko:소하 분기점"
      }
    },
    {
      "type": "node",
      "id": 595776357,
      "lat": 37.5156244,
      "lon": 127.0157288,
      "tags": {
        "highway": "motorway_junction",
        "name": "한남대교분기점",
        "name:en": "Hannam Bridge Junction",
        "name:ko": "한남대교분기점",
        "noref": "yes",
        "old_ref": "53"
      }
    },
    {
      "type": "node",
      "id": 596482663,
      "lat": 37.5311769,
      "lon": 127.0420722,
      "tags": {
        "highway": "motorway_junction",
        "name": "성수대교 분기점"
      }
    },
    {
      "type": "node",
      "id": 596500100,
      "lat": 37.5263936,
      "lon": 127.0549938,
      "tags": {
        "highway": "motorway_junction",
        "name": "영동대교 분기점"
      }
    },
    {
      "type": "node",
      "id": 596500173,
      "lat": 37.5244925,
      "lon": 127.058045,
      "tags": {
        "highway": "motorway_junction",
        "name": "영동대교 분기점"
      }
    },
    {
      "type": "node",
      "id": 597181288,
      "lat": 37.5086302,
      "lon": 127.0680042,
      "tags": {
        "highway": "motorway_junction",
        "name": "청담대교 분기점"
      }
    },
    {
      "type": "node",
      "id": 597181414,
      "lat": 37.5208916,
      "lon": 127.0621237,
      "tags": {
        "highway": "motorway_junction",
        "name": "청담대교 분기점"
      }
    },
    {
      "type": "node",
      "id": 597233038,
      "lat": 37.5181747,
      "lon": 127.0682837,
      "tags": {
        "highway": "motorway_junction",
        "name": "청담IC"
      }
    },
    {
      "type": "node",
      "id": 597233226,
      "lat": 37.5169768,
      "lon": 127.08768,
      "tags": {
        "highway": "motorway_junction",
        "name": "잠실대교 남단"
      }
    },
    {
      "type": "node",
      "id": 597233255,
      "lat": 37.5329677,
      "lon": 127.0607844,
      "tags": {
        "highway": "motorway_junction",
        "name": "청담대교 북단",
        "name:ko": "청담대교 북단",
        "ref": "20A"
      }
    },
    {
      "type": "node",
      "id": 597323079,
      "lat": 37.5340212,
      "lon": 127.0270157,
      "tags": {
        "highway": "motorway_junction",
        "name": "동호대교 분기점"
      }
    },
    {
      "type": "node",
      "id": 600371975,
      "lat": 37.5335661,
      "lon": 127.0588579,
      "tags": {
        "highway": "motorway_junction",
        "name": "영동대교 북단",
        "name:ko": "영동대교 북단",
        "ref": "19B"
      }
    },
    {
      "type": "node",
      "id": 600372044,
      "lat": 37.5345233,
      "lon": 127.0550889,
      "tags": {
        "highway": "motorway_junction",
        "name": "영동대교 북단",
        "name:ko": "영동대교 북단",
        "ref": "19A"
      }
    },
    {
      "type": "node",
      "id": 601703729,
      "lat": 37.5838494,
      "lon": 126.8149635,
      "tags": {
        "destination:lang:ja": "88JCT",
        "destination:lang:zh-Hans": "88分岔",
        "destination:lang:zh-Hant": "88分岔",
        "highway": "motorway_junction",
        "name": "88분기점",
        "name:en": "88 JC",
        "name:ko": "88분기점",
        "ref": "8",
        "wikidata": "Q16093056",
        "wikipedia": "ko:88 분기점"
      }
    },
    {
      "type": "node",
      "id": 601703779,
      "lat": 37.5920582,
      "lon": 126.8312946,
      "tags": {
        "destination:lang:ja": "北路JCT",
        "destination:lang:zh-Hans": "北路分岔",
        "destination:lang:zh-Hant": "北路分岔",
        "highway": "motorway_junction",
        "name": "북로 분기점",
        "name:el": "Κόμβος (JC) Μπούνγκνο",
        "name:en": "Bungno JC",
        "name:ko": "북로 분기점",
        "ref": "9",
        "short_name": "북로JC",
        "short_name:en": "Bungno JC",
        "short_name:ko": "북로분기점",
        "wikidata": "Q16096851",
        "wikipedia": "ko:북로 분기점"
      }
    },
    {
      "type": "node",
      "id": 601704028,
      "lat": 37.5817884,
      "lon": 126.8260392,
      "tags": {
        "highway": "motorway_junction",
        "name": "방화대교분기점"
      }
    },
    {
      "type": "node",
      "id": 601704037,
      "lat": 37.5827586,
      "lon": 126.8234032,
      "tags": {
        "highway": "motorway_junction",
        "name": "방화대교분기점"
      }
    },
    {
      "type": "node",
      "id": 601728890,
      "lat": 37.5324016,
      "lon": 127.063815,
      "tags": {
        "highway": "motorway_junction",
        "name": "영동대교 북단",
        "ref": "19"
      }
    },
    {
      "type": "node",
      "id": 601729530,
      "lat": 37.5322057,
      "lon": 127.0628619,
      "tags": {
        "highway": "motorway_junction",
        "name": "청담대교 북단",
        "name:ko": "청담대교 북단",
        "ref": "20B"
      }
    },
    {
      "type": "node",
      "id": 601792080,
      "lat": 37.6072335,
      "lon": 126.8128267,
      "tags": {
        "highway": "motorway_junction",
        "name": "행주IC"
      }
    },
    {
      "type": "node",
      "id": 601792191,
      "lat": 37.6049684,
      "lon": 126.8210003,
      "tags": {
        "highway": "motorway_junction",
        "name": "행주IC"
      }
    },
    {
      "type": "node",
      "id": 601792597,
      "lat": 37.5967793,
      "lon": 126.8323745,
      "tags": {
        "highway": "motorway_junction",
        "name": "북로분기점",
        "name:en": "Bungno JC",
        "name:ko": "북로분기점",
        "wikidata": "Q16096851",
        "wikipedia": "ko:북로 분기점"
      }
    },
    {
      "type": "node",
      "id": 601792792,
      "lat": 37.5921935,
      "lon": 126.8361138,
      "tags": {
        "highway": "motorway_junction",
        "name": "북로분기점",
        "name:en": "Bungno JC",
        "name:ko": "북로분기점",
        "wikidata": "Q16096851",
        "wikipedia": "ko:북로 분기점"
      }
    },
    {
      "type": "node",
      "id": 603367678,
      "lat": 37.6323814,
      "lon": 127.3066165,
      "tags": {
        "highway": "motorway_junction",
        "name": "화도",
        "name:en": "Hwado",
        "name:ko": "화도",
        "ref": "2",
        "wikidata": "Q12625562",
        "wikipedia": "ko:화도 나들목"
      }
    },
    {
      "type": "node",
      "id": 603367682,
      "lat": 37.6311597,
      "lon": 127.3148385,
      "tags": {
        "highway": "motorway_junction",
        "name": "화도분기점",
        "name:en": "Hwado Junction",
        "name:ko": "화도분기점",
        "ref": "2-1",
        "start_date": "2024-02-07",
        "wikidata": "Q28701038",
        "wikipedia": "ko:화도 분기점"
      }
    },
    {
      "type": "node",
      "id": 603367694,
      "lat": 37.6331338,
      "lon": 127.3262664,
      "tags": {
        "highway": "motorway_junction",
        "name": "화도분기점",
        "name:en": "Hwado Junction",
        "name:ko": "화도분기점",
        "ref": "2-1A;2-1B",
        "start_date": "2024-02-07",
        "wikidata": "Q28701038",
        "wikipedia": "ko:화도 분기점"
      }
    },
    {
      "type": "node",
      "id": 603367701,
      "lat": 37.6312091,
      "lon": 127.3151891,
      "tags": {
        "highway": "motorway_junction",
        "name": "화도",
        "name:en": "Hwado",
        "name:ko": "화도",
        "ref": "2",
        "wikidata": "Q12625562",
        "wikipedia": "ko:화도 나들목"
      }
    },
    {
      "type": "node",
      "id": 603367851,
      "lat": 37.595528,
      "lon": 127.212624,
      "tags": {
        "highway": "motorway_junction",
        "name": "덕소삼패",
        "name:en": "Deokso-Sampae",
        "name:ko": "덕소삼패",
        "ref": "1",
        "wikidata": "Q12592810",
        "wikipedia": "ko:덕소삼패 나들목"
      }
    },
    {
      "type": "node",
      "id": 603371506,
      "lat": 37.6341494,
      "lon": 127.3753296,
      "tags": {
        "highway": "motorway_junction",
        "name": "서종나들목",
        "name:en": "Seojong Interchange",
        "name:ko": "서종나들목",
        "ref": "3"
      }
    },
    {
      "type": "node",
      "id": 603371644,
      "lat": 37.6340278,
      "lon": 127.3678732,
      "tags": {
        "highway": "motorway_junction",
        "name": "서종나들목",
        "name:en": "Seojong Interchange",
        "name:ko": "서종나들목",
        "ref": "3"
      }
    },
    {
      "type": "node",
      "id": 606975747,
      "lat": 37.621838,
      "lon": 126.8023047,
      "tags": {
        "exit_to": "문산;킨텍스",
        "highway": "motorway_junction",
        "name": "자유로",
        "name:en": "Jayuro",
        "name:ko": "자유로",
        "ref": "19"
      }
    },
    {
      "type": "node",
      "id": 606980715,
      "lat": 37.6387503,
      "lon": 126.8047234,
      "tags": {
        "highway": "motorway_junction",
        "name": "일산",
        "name:en": "Ilsan",
        "name:ko": "일산",
        "ref": "18",
        "wikidata": "Q12613687",
        "wikipedia": "ko:일산 나들목"
      }
    },
    {
      "type": "node",
      "id": 608347409,
      "lat": 37.4357975,
      "lon": 126.8148151,
      "tags": {
        "highway": "motorway_junction",
        "name": "안현분기점",
        "name:en": "Anhyeon Junction",
        "name:ko": "안현분기점",
        "ref": "11A;11B",
        "wikidata": "Q11257626",
        "wikipedia": "ko:안현 분기점"
      }
    },
    {
      "type": "node",
      "id": 608347561,
      "lat": 37.4377654,
      "lon": 126.8143377,
      "tags": {
        "highway": "motorway_junction",
        "name": "안현분기점",
        "name:en": "Anhyeon Junction",
        "name:ko": "안현분기점",
        "ref": "28A",
        "wikidata": "Q11257626",
        "wikipedia": "ko:안현 분기점"
      }
    },
    {
      "type": "node",
      "id": 608347863,
      "lat": 37.4539633,
      "lon": 126.8006087,
      "tags": {
        "highway": "motorway_junction",
        "name": "시흥",
        "name:en": "Siheung",
        "name:ko": "시흥",
        "ref": "27",
        "wikidata": "Q12604027",
        "wikipedia": "ko:시흥 나들목"
      }
    },
    {
      "type": "node",
      "id": 608347954,
      "lat": 37.437815,
      "lon": 126.8164101,
      "tags": {
        "highway": "motorway_junction",
        "name": "안현분기점",
        "name:en": "Anhyeon Junction",
        "name:ko": "안현분기점",
        "ref": "28A",
        "wikidata": "Q11257626",
        "wikipedia": "ko:안현 분기점"
      }
    },
    {
      "type": "node",
      "id": 608347998,
      "lat": 37.4392082,
      "lon": 126.8206251,
      "tags": {
        "highway": "motorway_junction",
        "name": "안현분기점",
        "name:en": "Anhyeon Junction",
        "name:ko": "안현분기점",
        "ref": "11",
        "wikidata": "Q11257626",
        "wikipedia": "ko:안현 분기점"
      }
    },
    {
      "type": "node",
      "id": 608348019,
      "lat": 37.4390052,
      "lon": 126.8190314,
      "tags": {
        "highway": "motorway_junction",
        "name": "안현분기점",
        "name:en": "Anhyeon Junction",
        "name:ko": "안현분기점",
        "ref": "11A;11B",
        "wikidata": "Q11257626",
        "wikipedia": "ko:안현 분기점"
      }
    },
    {
      "type": "node",
      "id": 608348075,
      "lat": 37.4371308,
      "lon": 126.815786,
      "tags": {
        "highway": "motorway_junction",
        "name": "안현분기점",
        "name:en": "Anhyeon Junction",
        "name:ko": "안현분기점",
        "ref": "11A",
        "wikidata": "Q11257626",
        "wikipedia": "ko:안현 분기점"
      }
    },
    {
      "type": "node",
      "id": 608348158,
      "lat": 37.4340431,
      "lon": 126.8197724,
      "tags": {
        "highway": "motorway_junction",
        "name": "안현분기점",
        "name:en": "Anhyeon Junction",
        "name:ko": "안현분기점",
        "ref": "28",
        "wikidata": "Q11257626",
        "wikipedia": "ko:안현 분기점"
      }
    },
    {
      "type": "node",
      "id": 608348177,
      "lat": 37.4353162,
      "lon": 126.8190959,
      "tags": {
        "highway": "motorway_junction",
        "name": "안현분기점",
        "name:en": "Anhyeon Junction",
        "name:ko": "안현분기점",
        "ref": "28A;28B",
        "wikidata": "Q11257626",
        "wikipedia": "ko:안현 분기점"
      }
    },
    {
      "type": "node",
      "id": 608348438,
      "lat": 37.4350636,
      "lon": 126.8126604,
      "tags": {
        "highway": "motorway_junction",
        "name": "안현분기점",
        "name:en": "Anhyeon Junction",
        "name:ko": "안현분기점",
        "ref": "11",
        "wikidata": "Q11257626",
        "wikipedia": "ko:안현 분기점"
      }
    },
    {
      "type": "node",
      "id": 608349029,
      "lat": 37.4402581,
      "lon": 126.8135711,
      "tags": {
        "highway": "motorway_junction",
        "name": "안현분기점",
        "name:en": "Anhyeon Junction",
        "name:ko": "안현분기점",
        "ref": "28",
        "wikidata": "Q11257626",
        "wikipedia": "ko:안현 분기점"
      }
    },
    {
      "type": "node",
      "id": 614607118,
      "lat": 37.4239253,
      "lon": 126.9066837,
      "tags": {
        "highway": "motorway_junction",
        "name": "석수",
        "name:en": "Seoksu",
        "name:ko": "석수",
        "ref": "14B"
      }
    },
    {
      "type": "node",
      "id": 614607159,
      "lat": 37.4235866,
      "lon": 126.901288,
      "tags": {
        "highway": "motorway_junction",
        "name": "석수",
        "name:en": "Seoksu",
        "name:ko": "석수",
        "ref": "14A"
      }
    },
    {
      "type": "node",
      "id": 614825754,
      "lat": 37.5394197,
      "lon": 127.0388847,
      "tags": {
        "highway": "motorway_junction",
        "name": "성수대교분기점",
        "ref": "18"
      }
    },
    {
      "type": "node",
      "id": 618908028,
      "lat": 37.3685391,
      "lon": 126.8691794,
      "tags": {
        "highway": "motorway_junction",
        "name": "조남분기점",
        "name:en": "Jonam Junction",
        "name:ko": "조남분기점",
        "ref": "29A",
        "wikidata": "Q11270947",
        "wikipedia": "ko:조남 분기점"
      }
    },
    {
      "type": "node",
      "id": 618908061,
      "lat": 37.3689097,
      "lon": 126.8687386,
      "tags": {
        "highway": "motorway_junction",
        "name": "조남분기점",
        "name:en": "Jonam Junction",
        "name:ko": "조남분기점",
        "ref": "29B",
        "wikidata": "Q11270947",
        "wikipedia": "ko:조남 분기점"
      }
    },
    {
      "type": "node",
      "id": 618908086,
      "lat": 37.3710206,
      "lon": 126.8624848,
      "tags": {
        "highway": "motorway_junction",
        "name": "조남분기점",
        "name:en": "Jonam Junction",
        "name:ko": "조남분기점",
        "ref": "29",
        "wikidata": "Q11270947",
        "wikipedia": "ko:조남 분기점"
      }
    },
    {
      "type": "node",
      "id": 618908089,
      "lat": 37.3693951,
      "lon": 126.8654002,
      "tags": {
        "highway": "motorway_junction",
        "name": "조남분기점",
        "name:en": "Jonam Junction",
        "name:ko": "조남분기점",
        "ref": "29A",
        "wikidata": "Q11270947",
        "wikipedia": "ko:조남 분기점"
      }
    },
    {
      "type": "node",
      "id": 618908098,
      "lat": 37.3652689,
      "lon": 126.8679051,
      "tags": {
        "highway": "motorway_junction",
        "name": "조남분기점",
        "name:en": "Jonam Junction",
        "name:ko": "조남분기점",
        "ref": "33A;33B",
        "wikidata": "Q11270947",
        "wikipedia": "ko:조남 분기점"
      }
    },
    {
      "type": "node",
      "id": 618908193,
      "lat": 37.3686412,
      "lon": 126.8737537,
      "tags": {
        "highway": "motorway_junction",
        "name": "조남분기점",
        "name:en": "Jonam Junction",
        "name:ko": "조남분기점",
        "ref": "29A",
        "wikidata": "Q11270947",
        "wikipedia": "ko:조남 분기점"
      }
    },
    {
      "type": "node",
      "id": 618908382,
      "lat": 37.3997823,
      "lon": 126.8726074,
      "tags": {
        "highway": "motorway_junction",
        "name": "목감",
        "name:en": "Mokgam",
        "name:ko": "목감",
        "ref": "34",
        "wikidata": "Q12595340",
        "wikipedia": "ko:목감 나들목"
      }
    },
    {
      "type": "node",
      "id": 618908422,
      "lat": 37.4054585,
      "lon": 126.8820026,
      "tags": {
        "highway": "motorway_junction",
        "name": "광명역",
        "name:en": "Gwangmyeong Station",
        "name:ko": "광명역",
        "ref": "35",
        "wikidata": "Q12584998",
        "wikipedia": "ko:광명역 나들목"
      }
    },
    {
      "type": "node",
      "id": 638266803,
      "lat": 37.37333,
      "lon": 126.8691191,
      "tags": {
        "destination": "100;판교,일산",
        "highway": "motorway_junction",
        "name": "조남분기점",
        "name:en": "Jonam Junction",
        "name:ko": "조남분기점",
        "ref": "33A",
        "wikidata": "Q11270947",
        "wikipedia": "ko:조남 분기점"
      }
    },
    {
      "type": "node",
      "id": 650022432,
      "lat": 37.3020091,
      "lon": 127.0462472,
      "tags": {
        "highway": "motorway_junction",
        "name": "동수원",
        "name:en": "East Suwon",
        "name:ko": "동수원",
        "ref": "12",
        "wikidata": "Q10858497",
        "wikipedia": "ko:동수원 나들목"
      }
    },
    {
      "type": "node",
      "id": 650024087,
      "lat": 37.3186197,
      "lon": 126.9906606,
      "tags": {
        "highway": "motorway_junction",
        "name": "북수원IC",
        "name:en": "N.Suwon IC",
        "name:ko": "북수원IC",
        "ref": "11"
      }
    },
    {
      "type": "node",
      "id": 651274617,
      "lat": 37.3285793,
      "lon": 126.9420542,
      "tags": {
        "highway": "motorway_junction",
        "name": "동군포IC",
        "name:en": "E.Gunpo IC",
        "name:ko": "동군포IC",
        "ref": "9"
      }
    },
    {
      "type": "node",
      "id": 651276872,
      "lat": 37.3230757,
      "lon": 126.910476,
      "tags": {
        "highway": "motorway_junction",
        "name": "둔대분기점",
        "name:en": "Dundae JC",
        "name:ko": "둔대분기점",
        "ref": "7"
      }
    },
    {
      "type": "node",
      "id": 670173185,
      "lat": 37.6576455,
      "lon": 127.3663408,
      "tags": {
        "highway": "motorway_junction",
        "name": "금남IC",
        "name:en": "Geumnam IC"
      }
    },
    {
      "type": "node",
      "id": 670234967,
      "lat": 37.5876227,
      "lon": 126.8437547,
      "tags": {
        "highway": "motorway_junction",
        "name": "육갑문"
      }
    },
    {
      "type": "node",
      "id": 670234970,
      "lat": 37.5902502,
      "lon": 126.838788,
      "tags": {
        "highway": "motorway_junction",
        "name": "육갑문"
      }
    },
    {
      "type": "node",
      "id": 670266494,
      "lat": 37.5716636,
      "lon": 127.1617988,
      "tags": {
        "highway": "motorway_junction",
        "name": "강일IC",
        "ref": "A"
      }
    },
    {
      "type": "node",
      "id": 670266537,
      "lat": 37.57314,
      "lon": 127.1649819,
      "tags": {
        "highway": "motorway_junction",
        "name": "강일",
        "name:en": "Gangil",
        "name:ko": "강일",
        "old_name": "하일",
        "ref": "7B",
        "wikidata": "Q12583073",
        "wikipedia": "ko:강일 나들목"
      }
    },
    {
      "type": "node",
      "id": 670266550,
      "lat": 37.5733104,
      "lon": 127.1661566,
      "tags": {
        "highway": "motorway_junction",
        "name": "강일IC",
        "ref": "B"
      }
    },
    {
      "type": "node",
      "id": 670266569,
      "lat": 37.5722065,
      "lon": 127.1680584,
      "tags": {
        "highway": "motorway_junction",
        "name": "강일",
        "name:en": "Gangil",
        "name:ko": "강일",
        "old_name": "하일",
        "ref": "7A;7B",
        "wikidata": "Q12583073",
        "wikipedia": "ko:강일 나들목"
      }
    },
    {
      "type": "node",
      "id": 670266654,
      "lat": 37.5820012,
      "lon": 127.1582436,
      "tags": {
        "highway": "motorway_junction",
        "name": "토평",
        "name:en": "Topyeong",
        "name:ko": "토평",
        "ref": "8",
        "wikidata": "Q12621194",
        "wikipedia": "ko:토평 나들목"
      }
    },
    {
      "type": "node",
      "id": 670266722,
      "lat": 37.5846825,
      "lon": 127.1565626,
      "tags": {
        "highway": "motorway_junction",
        "name": "토평",
        "name:en": "Topyeong",
        "name:ko": "토평",
        "ref": "8",
        "wikidata": "Q12621194",
        "wikipedia": "ko:토평 나들목"
      }
    },
    {
      "type": "node",
      "id": 685222388,
      "lat": 37.5310555,
      "lon": 127.2964769,
      "tags": {
        "highway": "motorway_junction",
        "name": "조안 IC"
      }
    },
    {
      "type": "node",
      "id": 685222471,
      "lat": 37.4495303,
      "lon": 127.264562,
      "tags": {
        "alt_name": "경기광주IC",
        "highway": "motorway_junction",
        "name": "광주IC",
        "name:en": "Gwangju IC",
        "name:ko": "광주IC",
        "ref": "40"
      }
    },
    {
      "type": "node",
      "id": 686440354,
      "lat": 37.2416784,
      "lon": 127.3648227,
      "tags": {
        "highway": "motorway_junction",
        "name": "덕평IC",
        "name:en": "Deokpyeong IC",
        "name:ko": "덕평IC",
        "ref": "20"
      }
    },
    {
      "type": "node",
      "id": 686440374,
      "lat": 37.2558478,
      "lon": 127.2121304,
      "tags": {
        "highway": "motorway_junction",
        "name": "용인IC",
        "name:en": "Yongin IC",
        "name:ko": "용인IC",
        "ref": "17"
      }
    },
    {
      "type": "node",
      "id": 686440563,
      "lat": 37.240349,
      "lon": 127.3812846,
      "tags": {
        "highway": "motorway_junction",
        "name": "덕평자연휴게소",
        "name:en": "Deokpyeong Natual Service Station",
        "name:ko": "덕평자연휴게소",
        "noref": "yes"
      }
    },
    {
      "type": "node",
      "id": 686460955,
      "lat": 37.2586108,
      "lon": 127.2050451,
      "tags": {
        "highway": "motorway_junction",
        "name": "용인IC",
        "name:en": "Yongin IC",
        "name:ko": "용인IC",
        "ref": "17"
      }
    },
    {
      "type": "node",
      "id": 728372697,
      "lat": 37.3506133,
      "lon": 126.8081003,
      "tags": {
        "highway": "motorway_junction",
        "name": "서안산IC",
        "name:en": "W.Ansan IC",
        "name:ko": "서안산IC",
        "ref": "4"
      }
    },
    {
      "type": "node",
      "id": 728457006,
      "lat": 37.2652082,
      "lon": 126.9485494,
      "tags": {
        "highway": "motorway_junction",
        "name": "호매실",
        "name:en": "Homaesil",
        "name:ko": "호매실",
        "ref": "5"
      }
    },
    {
      "type": "node",
      "id": 728457164,
      "lat": 37.2596445,
      "lon": 126.948709,
      "tags": {
        "highway": "motorway_junction",
        "name": "호매실",
        "name:en": "Homaesil",
        "name:ko": "호매실",
        "ref": "5"
      }
    },
    {
      "type": "node",
      "id": 728606648,
      "lat": 37.3477153,
      "lon": 126.8374298,
      "tags": {
        "highway": "motorway_junction",
        "name": "안산IC",
        "name:en": "Ansan IC",
        "name:ko": "안산IC",
        "ref": "5"
      }
    },
    {
      "type": "node",
      "id": 728606679,
      "lat": 37.348603,
      "lon": 126.840834,
      "tags": {
        "highway": "motorway_junction",
        "name": "안산IC",
        "name:en": "Ansan IC",
        "name:ko": "안산IC",
        "ref": "5"
      }
    },
    {
      "type": "node",
      "id": 728632361,
      "lat": 37.3780729,
      "lon": 126.9549776,
      "tags": {
        "highway": "motorway_junction",
        "name": "평촌",
        "name:en": "Pyeongchon",
        "name:ko": "평촌",
        "ref": "31",
        "wikidata": "Q12621816",
        "wikipedia": "ko:평촌 나들목"
      }
    },
    {
      "type": "node",
      "id": 728632436,
      "lat": 37.376519,
      "lon": 126.9336214,
      "tags": {
        "highway": "motorway_junction",
        "name": "산본",
        "name:en": "Sanbon",
        "name:ko": "산본",
        "ref": "30",
        "wikidata": "Q12600006",
        "wikipedia": "ko:산본 나들목"
      }
    },
    {
      "type": "node",
      "id": 728632475,
      "lat": 37.3759068,
      "lon": 126.9321945,
      "tags": {
        "highway": "motorway_junction",
        "name": "산본",
        "name:en": "Sanbon",
        "name:ko": "산본",
        "ref": "30",
        "wikidata": "Q12600006",
        "wikipedia": "ko:산본 나들목"
      }
    },
    {
      "type": "node",
      "id": 728643854,
      "lat": 37.2929531,
      "lon": 126.9477403,
      "tags": {
        "highway": "motorway_junction",
        "name": "서수원IC"
      }
    },
    {
      "type": "node",
      "id": 728643888,
      "lat": 37.2981634,
      "lon": 126.9560121,
      "tags": {
        "highway": "motorway_junction",
        "name": "서수원",
        "name:en": "West Suwon",
        "name:ko": "서수원",
        "ref": "4"
      }
    },
    {
      "type": "node",
      "id": 728644190,
      "lat": 37.2927568,
      "lon": 126.9567932,
      "tags": {
        "highway": "motorway_junction",
        "name": "서수원IC"
      }
    },
    {
      "type": "node",
      "id": 728644243,
      "lat": 37.2887876,
      "lon": 126.950781,
      "tags": {
        "highway": "motorway_junction",
        "name": "서수원",
        "name:en": "West Suwon",
        "name:ko": "서수원",
        "ref": "4"
      }
    },
    {
      "type": "node",
      "id": 728690862,
      "lat": 37.30656,
      "lon": 126.9653848,
      "tags": {
        "highway": "motorway_junction",
        "name": "월암",
        "name:en": "Woram",
        "name:ko": "월암",
        "ref": "3"
      }
    },
    {
      "type": "node",
      "id": 728690970,
      "lat": 37.3032811,
      "lon": 126.9628693,
      "tags": {
        "highway": "motorway_junction",
        "name": "월암",
        "name:en": "Woram",
        "name:ko": "월암",
        "ref": "3"
      }
    },
    {
      "type": "node",
      "id": 729255534,
      "lat": 37.389165,
      "lon": 127.0053281,
      "tags": {
        "destination": "309;과천,의왕",
        "highway": "motorway_junction",
        "name": "학의분기점",
        "name:en": "Hagui Junction",
        "name:ko": "학의분기점",
        "ref": "32A;32B",
        "wikidata": "Q12622646",
        "wikipedia": "ko:학의 분기점"
      }
    },
    {
      "type": "node",
      "id": 729255650,
      "lat": 37.3855465,
      "lon": 126.9982727,
      "tags": {
        "destination": "309;과천,의왕",
        "highway": "motorway_junction",
        "name": "학의분기점",
        "name:en": "Hagui Junction",
        "name:ko": "학의분기점",
        "ref": "32A;32B",
        "wikidata": "Q12622646",
        "wikipedia": "ko:학의 분기점"
      }
    },
    {
      "type": "node",
      "id": 729255753,
      "lat": 37.3895152,
      "lon": 127.0078761,
      "tags": {
        "highway": "motorway_junction",
        "name": "학의분기점",
        "name:en": "Hagui Junction",
        "name:ko": "학의분기점",
        "ref": "32",
        "wikidata": "Q12622646",
        "wikipedia": "ko:학의 분기점"
      }
    },
    {
      "type": "node",
      "id": 729255903,
      "lat": 37.3917783,
      "lon": 127.0030346,
      "tags": {
        "highway": "motorway_junction",
        "name": "학의분기점",
        "name:en": "Hagui JC",
        "name:ko": "학의분기점",
        "wikidata": "Q12622646",
        "wikipedia": "ko:학의 분기점"
      }
    },
    {
      "type": "node",
      "id": 729256000,
      "lat": 37.3714599,
      "lon": 126.9977396,
      "tags": {
        "highway": "motorway_junction",
        "name": "청계",
        "name:en": "Cheonggye",
        "name:ko": "청계"
      }
    },
    {
      "type": "node",
      "id": 729256060,
      "lat": 37.3856204,
      "lon": 126.9951221,
      "tags": {
        "destination": "309;과천,의왕",
        "highway": "motorway_junction",
        "name": "학의분기점",
        "name:en": "Hagui Junction",
        "name:ko": "학의분기점",
        "ref": "32",
        "wikidata": "Q12622646",
        "wikipedia": "ko:학의 분기점"
      }
    },
    {
      "type": "node",
      "id": 729260041,
      "lat": 37.3433471,
      "lon": 126.9802245,
      "tags": {
        "highway": "motorway_junction",
        "name": "의왕",
        "name:en": "Uiwang",
        "name:ko": "의왕",
        "ref": "1A"
      }
    },
    {
      "type": "node",
      "id": 729260572,
      "lat": 37.3373787,
      "lon": 126.9741533,
      "tags": {
        "highway": "motorway_junction",
        "name": "의왕",
        "name:en": "Uiwang",
        "name:ko": "의왕",
        "ref": "1"
      }
    },
    {
      "type": "node",
      "id": 729260797,
      "lat": 37.342831,
      "lon": 126.9797003,
      "tags": {
        "highway": "motorway_junction",
        "name": "의왕",
        "name:en": "Uiwang",
        "name:ko": "의왕",
        "ref": "1B"
      }
    },
    {
      "type": "node",
      "id": 729261958,
      "lat": 37.3355584,
      "lon": 126.9716627,
      "tags": {
        "highway": "motorway_junction",
        "name": "신부곡",
        "name:en": "Sinbugok",
        "name:ko": "신부곡",
        "ref": "2"
      }
    },
    {
      "type": "node",
      "id": 729262203,
      "lat": 37.3290918,
      "lon": 126.9661888,
      "tags": {
        "highway": "motorway_junction",
        "name": "신부곡",
        "name:en": "Sinbugok",
        "name:ko": "신부곡",
        "ref": "2"
      }
    },
    {
      "type": "node",
      "id": 732030777,
      "lat": 37.4854809,
      "lon": 127.0251976,
      "tags": {
        "highway": "motorway_junction",
        "name": "서초",
        "name:en": "Seocho",
        "name:ko": "서초",
        "noref": "yes",
        "old_ref": "50",
        "short_name": "서초IC",
        "short_name:en": "Seocho IC"
      }
    },
    {
      "type": "node",
      "id": 732030799,
      "lat": 37.4830327,
      "lon": 127.0259947,
      "tags": {
        "highway": "motorway_junction",
        "name": "서초",
        "name:en": "Seocho",
        "name:ko": "서초",
        "noref": "yes",
        "old_ref": "50"
      }
    },
    {
      "type": "node",
      "id": 732030981,
      "lat": 37.4837981,
      "lon": 127.0259984,
      "tags": {
        "highway": "motorway_junction",
        "name": "서초",
        "name:en": "Seocho",
        "name:ko": "서초",
        "noref": "yes",
        "old_ref": "50",
        "short_name": "서초IC",
        "short_name:en": "Seocho IC"
      }
    },
    {
      "type": "node",
      "id": 732033754,
      "lat": 37.4232298,
      "lon": 126.9973028,
      "tags": {
        "highway": "motorway_junction",
        "name": "과천",
        "name:en": "Gwacheon",
        "name:ko": "과천"
      }
    },
    {
      "type": "node",
      "id": 732034311,
      "lat": 37.4133346,
      "lon": 126.9922653,
      "tags": {
        "highway": "motorway_junction",
        "name": "과천",
        "name:en": "Gwacheon",
        "name:ko": "과천"
      }
    },
    {
      "type": "node",
      "id": 732065564,
      "lat": 37.5428081,
      "lon": 127.0290195,
      "tags": {
        "highway": "motorway_junction",
        "name": "성수대교 분기점",
        "name:ko": "성수대교 분기점",
        "ref": "18"
      }
    },
    {
      "type": "node",
      "id": 732066125,
      "lat": 37.5433979,
      "lon": 127.027517,
      "tags": {
        "highway": "motorway_junction",
        "name": "성수대교분기점",
        "name:ko": "성수대교분기점",
        "ref": "18"
      }
    },
    {
      "type": "node",
      "id": 732066513,
      "lat": 37.4910624,
      "lon": 127.103968,
      "tags": {
        "highway": "motorway_junction",
        "name": "수서IC",
        "name:en": "Suseo IC",
        "name:ko": "수서IC"
      }
    },
    {
      "type": "node",
      "id": 732245596,
      "lat": 37.5337289,
      "lon": 127.0311682,
      "tags": {
        "highway": "motorway_junction",
        "name": "성수대교 분기점"
      }
    },
    {
      "type": "node",
      "id": 732247759,
      "lat": 37.5520904,
      "lon": 127.0450194,
      "tags": {
        "highway": "motorway_junction",
        "name": "내부순환로분기점"
      }
    },
    {
      "type": "node",
      "id": 732440634,
      "lat": 37.5166405,
      "lon": 127.0773949,
      "tags": {
        "highway": "motorway_junction",
        "name": "종합운동장 분기점"
      }
    },
    {
      "type": "node",
      "id": 732442109,
      "lat": 37.5228078,
      "lon": 127.1007042,
      "tags": {
        "highway": "motorway_junction",
        "name": "잠실대교 남단"
      }
    },
    {
      "type": "node",
      "id": 733126464,
      "lat": 37.5273727,
      "lon": 127.0816366,
      "tags": {
        "highway": "motorway_junction",
        "name": "잠실대교 북단",
        "name:ko": "잠실대교 북단",
        "ref": "21",
        "surface": "asphalt"
      }
    },
    {
      "type": "node",
      "id": 733126620,
      "lat": 37.5301055,
      "lon": 127.0910356,
      "tags": {
        "highway": "motorway_junction",
        "name": "잠실대교 북단",
        "ref": "21",
        "surface": "asphalt"
      }
    },
    {
      "type": "node",
      "id": 734789380,
      "lat": 37.4617155,
      "lon": 127.0417963,
      "tags": {
        "highway": "motorway_junction",
        "name": "양재",
        "name:en": "Yangjae",
        "name:ja": "良才",
        "name:ko": "양재",
        "ref": "49",
        "wikidata": "Q2924611",
        "wikipedia": "ko:양재 나들목"
      }
    },
    {
      "type": "node",
      "id": 734789403,
      "lat": 37.4074177,
      "lon": 127.1000413,
      "tags": {
        "highway": "motorway_junction",
        "name": "판교분기점",
        "name:en": "Pangyo Junction",
        "name:ko": "판교분기점",
        "ref": "1",
        "short_name": "판교JC",
        "short_name:en": "Pangyo JC",
        "short_name:ko": "판교JC"
      }
    },
    {
      "type": "node",
      "id": 734789524,
      "lat": 37.4035496,
      "lon": 127.0885946,
      "tags": {
        "destination": "1;대전,판교",
        "highway": "motorway_junction",
        "name": "판교분기점",
        "name:en": "Pangyo Junction",
        "name:ko": "판교분기점",
        "ref": "1",
        "short_name": "판교JC",
        "short_name:en": "Pangyo JC",
        "short_name:ko": "판교JC"
      }
    },
    {
      "type": "node",
      "id": 734789596,
      "lat": 37.4049779,
      "lon": 127.0968603,
      "tags": {
        "highway": "motorway_junction",
        "name": "판교분기점",
        "name:en": "Pangyo Junction",
        "name:ko": "판교분기점",
        "ref": "48A;48B",
        "wikidata": "Q11280538",
        "wikipedia": "ko:판교 분기점"
      }
    },
    {
      "type": "node",
      "id": 734789603,
      "lat": 37.4627781,
      "lon": 127.0404607,
      "tags": {
        "highway": "motorway_junction",
        "name": "양재IC",
        "name:en": "Yangjae Interchange",
        "name:ja": "良才IC",
        "name:ko": "양재IC",
        "old_ref": "49",
        "wikidata": "Q2924611",
        "wikipedia": "ko:양재 나들목"
      }
    },
    {
      "type": "node",
      "id": 734789643,
      "lat": 37.465681,
      "lon": 127.0377146,
      "tags": {
        "highway": "motorway_junction",
        "name": "양재IC",
        "name:en": "Yangjae Interchange",
        "name:ja": "良才IC",
        "name:ko": "양재IC",
        "old_ref": "49"
      }
    },
    {
      "type": "node",
      "id": 734816404,
      "lat": 37.432522,
      "lon": 127.1234155,
      "tags": {
        "highway": "motorway_junction",
        "name": "성남",
        "name:en": "Seongnam",
        "name:ko": "성남",
        "ref": "2A"
      }
    },
    {
      "type": "node",
      "id": 734816405,
      "lat": 37.4305016,
      "lon": 127.1234019,
      "tags": {
        "highway": "motorway_junction",
        "name": "성남",
        "name:en": "Seongnam",
        "name:ko": "성남",
        "ref": "2B"
      }
    },
    {
      "type": "node",
      "id": 734968654,
      "lat": 37.4734934,
      "lon": 127.1270895,
      "tags": {
        "highway": "motorway_junction",
        "name": "송파",
        "name:en": "Songpa",
        "name:ja": "松坡",
        "name:ko": "송파",
        "ref": "3"
      }
    },
    {
      "type": "node",
      "id": 734968944,
      "lat": 37.477775,
      "lon": 127.132918,
      "tags": {
        "highway": "motorway_junction",
        "name": "송파",
        "name:en": "Songpa",
        "name:ja": "松坡",
        "name:ko": "송파",
        "ref": "3B;3A"
      }
    },
    {
      "type": "node",
      "id": 797027810,
      "lat": 37.5319144,
      "lon": 127.1100377,
      "tags": {
        "highway": "motorway_junction",
        "name": "올림픽대교 분기점"
      }
    },
    {
      "type": "node",
      "id": 797027851,
      "lat": 37.5506671,
      "lon": 127.1231507,
      "tags": {
        "highway": "motorway_junction",
        "name": "암사분기점"
      }
    },
    {
      "type": "node",
      "id": 797046958,
      "lat": 37.5670628,
      "lon": 127.1388498,
      "tags": {
        "highway": "motorway_junction",
        "name": "암사IC"
      }
    },
    {
      "type": "node",
      "id": 797047028,
      "lat": 37.5351086,
      "lon": 127.1110158,
      "tags": {
        "highway": "motorway_junction",
        "name": "올림픽대교 분기점"
      }
    },
    {
      "type": "node",
      "id": 797047029,
      "lat": 37.5309536,
      "lon": 127.1091991,
      "tags": {
        "highway": "motorway_junction",
        "name": "올림픽대교 분기점"
      }
    },
    {
      "type": "node",
      "id": 797051254,
      "lat": 37.5263829,
      "lon": 127.1059515,
      "tags": {
        "highway": "motorway_junction",
        "name": "올림픽대교 분기점"
      }
    },
    {
      "type": "node",
      "id": 798556794,
      "lat": 37.5049224,
      "lon": 126.9760108,
      "tags": {
        "highway": "motorway_junction",
        "name": "동작대교남단"
      }
    },
    {
      "type": "node",
      "id": 798560466,
      "lat": 37.5150006,
      "lon": 126.9312631,
      "tags": {
        "highway": "motorway_junction",
        "name": "여의상류IC"
      }
    },
    {
      "type": "node",
      "id": 798563254,
      "lat": 37.5381696,
      "lon": 126.901674,
      "tags": {
        "highway": "motorway_junction",
        "name": "여의하류IC"
      }
    },
    {
      "type": "node",
      "id": 798566746,
      "lat": 37.5550464,
      "lon": 126.8740746,
      "tags": {
        "highway": "motorway_junction",
        "name": "염창IC",
        "name:ko": "염창IC"
      }
    },
    {
      "type": "node",
      "id": 798566890,
      "lat": 37.5519135,
      "lon": 126.8819483,
      "tags": {
        "highway": "motorway_junction",
        "name": "염창분기점",
        "name:ko": "염창분기점"
      }
    },
    {
      "type": "node",
      "id": 798645945,
      "lat": 37.5487454,
      "lon": 126.9050611,
      "tags": {
        "highway": "motorway_junction",
        "name": "양화대교 북단",
        "ref": "9A"
      }
    },
    {
      "type": "node",
      "id": 798688628,
      "lat": 37.5055133,
      "lon": 126.9803087,
      "tags": {
        "highway": "motorway_junction",
        "name": "동작대교남단"
      }
    },
    {
      "type": "node",
      "id": 798708378,
      "lat": 37.5169003,
      "lon": 126.9898236,
      "tags": {
        "highway": "motorway_junction",
        "name": "반포대교 북단",
        "name:ko": "반포대교 북단",
        "ref": "15"
      }
    },
    {
      "type": "node",
      "id": 842906628,
      "lat": 37.3208423,
      "lon": 127.0854661,
      "tags": {
        "highway": "motorway_junction"
      }
    },
    {
      "type": "node",
      "id": 842906631,
      "lat": 37.3198654,
      "lon": 127.0889395,
      "tags": {
        "highway": "motorway_junction"
      }
    },
    {
      "type": "node",
      "id": 843344368,
      "lat": 37.282705,
      "lon": 127.1775545,
      "tags": {
        "highway": "motorway_junction",
        "name": "마성IC",
        "name:en": "Maseong IC",
        "name:ko": "마성IC",
        "ref": "14"
      }
    },
    {
      "type": "node",
      "id": 843344406,
      "lat": 37.2838916,
      "lon": 127.1731462,
      "tags": {
        "highway": "motorway_junction",
        "name": "마성IC",
        "name:en": "Maseong IC",
        "name:ko": "마성IC",
        "ref": "14"
      }
    },
    {
      "type": "node",
      "id": 846808318,
      "lat": 37.4583474,
      "lon": 127.021152,
      "tags": {
        "highway": "motorway_junction",
        "name": "선암"
      }
    },
    {
      "type": "node",
      "id": 852509490,
      "lat": 37.6633113,
      "lon": 127.2387829,
      "tags": {
        "highway": "motorway_junction",
        "name": "호평IC"
      }
    },
    {
      "type": "node",
      "id": 872162529,
      "lat": 37.5174616,
      "lon": 127.0759045,
      "tags": {
        "highway": "motorway_junction",
        "name": "종합운동장"
      }
    },
    {
      "type": "node",
      "id": 969772830,
      "lat": 37.5292303,
      "lon": 127.0224277,
      "tags": {
        "highway": "motorway_junction",
        "name": "동호대교 분기점"
      }
    },
    {
      "type": "node",
      "id": 969772834,
      "lat": 37.5314157,
      "lon": 127.0246535,
      "tags": {
        "highway": "motorway_junction",
        "name": "동호대교 분기점"
      }
    },
    {
      "type": "node",
      "id": 978185053,
      "lat": 37.6177431,
      "lon": 127.1408716,
      "tags": {
        "highway": "motorway_junction",
        "name": "구리",
        "name:en": "Guri",
        "name:ko": "구리",
        "ref": "10A;10B",
        "wikidata": "Q12585400",
        "wikipedia": "ko:구리 나들목"
      }
    },
    {
      "type": "node",
      "id": 978195398,
      "lat": 37.6182348,
      "lon": 127.1408623,
      "tags": {
        "highway": "motorway_junction",
        "name": "구리",
        "name:en": "Guri",
        "name:ko": "구리",
        "ref": "10",
        "wikidata": "Q12585400",
        "wikipedia": "ko:구리 나들목"
      }
    },
    {
      "type": "node",
      "id": 999136435,
      "lat": 37.5440337,
      "lon": 127.1201522,
      "tags": {
        "highway": "motorway_junction",
        "name": "천호대교 분기점"
      }
    },
    {
      "type": "node",
      "id": 999136481,
      "lat": 37.541268,
      "lon": 127.1044583,
      "tags": {
        "highway": "motorway_junction",
        "name": "천호대교 북단",
        "name:ko": "천호대교 북단",
        "ref": "23"
      }
    },
    {
      "type": "node",
      "id": 999136510,
      "lat": 37.547138,
      "lon": 127.1214742,
      "tags": {
        "highway": "motorway_junction",
        "name": "천호대교 남단"
      }
    },
    {
      "type": "node",
      "id": 999136554,
      "lat": 37.5374302,
      "lon": 127.1140984,
      "tags": {
        "highway": "motorway_junction",
        "name": "천호대교 분기점"
      }
    },
    {
      "type": "node",
      "id": 999136644,
      "lat": 37.5479104,
      "lon": 127.1104121,
      "tags": {
        "highway": "motorway_junction",
        "name": "광진교 북단",
        "ref": "23"
      }
    },
    {
      "type": "node",
      "id": 999136652,
      "lat": 37.543485,
      "lon": 127.1196102,
      "tags": {
        "highway": "motorway_junction",
        "name": "한강공원입구",
        "ref": "A-1"
      }
    },
    {
      "type": "node",
      "id": 999136676,
      "lat": 37.5394812,
      "lon": 127.1156737,
      "tags": {
        "highway": "motorway_junction",
        "name": "한강공원입구",
        "ref": "A-2"
      }
    },
    {
      "type": "node",
      "id": 1000275654,
      "lat": 37.6306027,
      "lon": 126.8044227,
      "tags": {
        "highway": "motorway_junction",
        "name": "일산",
        "name:en": "Ilsan",
        "name:ko": "일산",
        "ref": "18",
        "wikidata": "Q12613687",
        "wikipedia": "ko:일산 나들목"
      }
    },
    {
      "type": "node",
      "id": 1000367409,
      "lat": 37.6735232,
      "lon": 126.8928973,
      "tags": {
        "highway": "motorway_junction",
        "name": "통일로",
        "name:en": "Tongillo",
        "name:ko": "통일로",
        "ref": "16",
        "wikidata": "Q12621257",
        "wikipedia": "ko:통일로 나들목"
      }
    },
    {
      "type": "node",
      "id": 1000488950,
      "lat": 37.6161409,
      "lon": 127.1723344,
      "tags": {
        "highway": "motorway_junction",
        "name": "도농IC"
      }
    },
    {
      "type": "node",
      "id": 1000489114,
      "lat": 37.6103271,
      "lon": 127.1247808,
      "tags": {
        "highway": "motorway_junction",
        "name": "인창IC"
      }
    },
    {
      "type": "node",
      "id": 1000489163,
      "lat": 37.6148216,
      "lon": 127.1415403,
      "tags": {
        "highway": "motorway_junction",
        "name": "구리",
        "name:en": "Guri",
        "name:ko": "구리",
        "ref": "10B",
        "wikidata": "Q12585400",
        "wikipedia": "ko:구리 나들목"
      }
    },
    {
      "type": "node",
      "id": 1000493460,
      "lat": 37.6364424,
      "lon": 127.1339763,
      "tags": {
        "highway": "motorway_junction",
        "name": "퇴계원",
        "name:en": "Toegyewon",
        "name:ko": "퇴계원",
        "ref": "12",
        "wikidata": "Q16098292",
        "wikipedia": "ko:퇴계원 나들목"
      }
    },
    {
      "type": "node",
      "id": 1019336044,
      "lat": 37.534222,
      "lon": 127.0959484,
      "tags": {
        "highway": "motorway_junction",
        "name": "올림픽대교 북단",
        "name:ko": "올림픽대교 북단",
        "ref": "22"
      }
    },
    {
      "type": "node",
      "id": 1132441054,
      "lat": 37.5123536,
      "lon": 127.0026434,
      "tags": {
        "highway": "motorway_junction",
        "name": "반포대교남단"
      }
    },
    {
      "type": "node",
      "id": 1132441060,
      "lat": 37.5088412,
      "lon": 126.9965084,
      "tags": {
        "highway": "motorway_junction",
        "name": "반포대교남단"
      }
    },
    {
      "type": "node",
      "id": 1204137116,
      "lat": 37.641082,
      "lon": 127.3007856,
      "tags": {
        "highway": "motorway_junction",
        "name": "마석IC",
        "name:ko": "마석IC"
      }
    },
    {
      "type": "node",
      "id": 1204137339,
      "lat": 37.6436268,
      "lon": 127.293537,
      "tags": {
        "highway": "motorway_junction",
        "name": "마석IC",
        "name:ko": "마석IC"
      }
    },
    {
      "type": "node",
      "id": 1280279569,
      "lat": 37.2620243,
      "lon": 127.1039771,
      "tags": {
        "highway": "motorway_junction",
        "name": "수원신갈",
        "name:en": "Suwon-Singal",
        "name:ko": "수원신갈",
        "ref": "44"
      }
    },
    {
      "type": "node",
      "id": 1509649332,
      "lat": 37.3886334,
      "lon": 126.8004351,
      "tags": {
        "highway": "motorway_junction",
        "name": "연성IC",
        "name:en": "Yeonseong IC",
        "name:ko": "연성IC",
        "ref": "3"
      }
    },
    {
      "type": "node",
      "id": 1509649405,
      "lat": 37.3967251,
      "lon": 126.8581634,
      "tags": {
        "highway": "motorway_junction",
        "name": "동시흥 분기점",
        "name:en": "East Siheung Junction",
        "name:ko": "동시흥 분기점",
        "ref": "4",
        "wikidata": "Q16096468",
        "wikipedia": "ko:동시흥 분기점"
      }
    },
    {
      "type": "node",
      "id": 1658715710,
      "lat": 37.6203618,
      "lon": 127.2228312,
      "tags": {
        "highway": "motorway_junction",
        "name": "율석",
        "name:en": "Yulseok",
        "name:ko": "율석",
        "ref": "4"
      }
    },
    {
      "type": "node",
      "id": 1666195509,
      "lat": 37.5279399,
      "lon": 127.0074153,
      "tags": {
        "highway": "motorway_junction",
        "name": "한남대교 북단",
        "name:ko": "한남대교 북단",
        "ref": "16"
      }
    },
    {
      "type": "node",
      "id": 1668416439,
      "lat": 37.3921825,
      "lon": 127.1017939,
      "tags": {
        "highway": "motorway_junction",
        "name": "판교",
        "name:en": "Pangyo",
        "name:ko": "판교",
        "ref": "47",
        "wikidata": "Q2801204",
        "wikipedia": "ko:판교 나들목"
      }
    },
    {
      "type": "node",
      "id": 1668416604,
      "lat": 37.3985996,
      "lon": 127.0993383,
      "tags": {
        "highway": "motorway_junction",
        "name": "판교",
        "name:en": "Pangyo",
        "name:ko": "판교",
        "ref": "47"
      }
    },
    {
      "type": "node",
      "id": 1668416669,
      "lat": 37.4032863,
      "lon": 127.0974735,
      "tags": {
        "highway": "motorway_junction",
        "name": "판교분기점",
        "name:en": "Pangyo Junction",
        "name:ko": "판교분기점",
        "ref": "48A;48B",
        "wikidata": "Q11280538",
        "wikipedia": "ko:판교 분기점"
      }
    },
    {
      "type": "node",
      "id": 1808903641,
      "lat": 37.6164231,
      "lon": 127.0987507,
      "tags": {
        "highway": "motorway_junction",
        "name": "신내IC"
      }
    },
    {
      "type": "node",
      "id": 1808903691,
      "lat": 37.6469934,
      "lon": 127.1629517,
      "tags": {
        "alt_name": "신진관IC",
        "highway": "motorway_junction",
        "name": "진관IC",
        "name:ko": "진관IC"
      }
    },
    {
      "type": "node",
      "id": 1808903741,
      "lat": 37.6117806,
      "lon": 127.131574,
      "tags": {
        "highway": "motorway_junction",
        "name": "인창IC"
      }
    },
    {
      "type": "node",
      "id": 1810879971,
      "lat": 37.6411789,
      "lon": 127.1434605,
      "tags": {
        "highway": "motorway_junction",
        "name": "퇴계원IC"
      }
    },
    {
      "type": "node",
      "id": 1810879999,
      "lat": 37.6450233,
      "lon": 127.1589262,
      "tags": {
        "highway": "motorway_junction",
        "name": "진관IC"
      }
    },
    {
      "type": "node",
      "id": 1810880183,
      "lat": 37.6414484,
      "lon": 127.1402365,
      "tags": {
        "highway": "motorway_junction",
        "name": "사노IC"
      }
    },
    {
      "type": "node",
      "id": 1810880223,
      "lat": 37.6415364,
      "lon": 127.1379681,
      "tags": {
        "highway": "motorway_junction",
        "name": "사노IC"
      }
    },
    {
      "type": "node",
      "id": 1814566615,
      "lat": 37.2637799,
      "lon": 127.0911537,
      "tags": {
        "highway": "motorway_junction",
        "name": "청명IC",
        "name:ko": "청명IC"
      }
    },
    {
      "type": "node",
      "id": 1814802236,
      "lat": 37.6134161,
      "lon": 127.1360724,
      "tags": {
        "highway": "motorway_junction",
        "name": "동창교IC"
      }
    },
    {
      "type": "node",
      "id": 1853555274,
      "lat": 37.5335236,
      "lon": 127.0231667,
      "tags": {
        "highway": "motorway_junction"
      }
    },
    {
      "type": "node",
      "id": 1880995733,
      "lat": 37.5799729,
      "lon": 127.1848206,
      "tags": {
        "highway": "motorway_junction",
        "name": "미사교차로",
        "name:ko": "미사교차로",
        "noref": "yes",
        "wikidata": "Q12596037",
        "wikipedia": "ko:미사 나들목"
      }
    },
    {
      "type": "node",
      "id": 1936511974,
      "lat": 37.6048549,
      "lon": 127.0457506,
      "tags": {
        "highway": "motorway_junction",
        "name": "하월곡"
      }
    },
    {
      "type": "node",
      "id": 1936512278,
      "lat": 37.6152691,
      "lon": 127.0687784,
      "tags": {
        "highway": "motorway_junction",
        "name": "월릉IC"
      }
    },
    {
      "type": "node",
      "id": 1968737469,
      "lat": 37.5909787,
      "lon": 127.2055308,
      "tags": {
        "highway": "motorway_junction",
        "name": "덕소삼패",
        "name:en": "Deokso-Sampae",
        "name:ko": "덕소삼패",
        "ref": "1",
        "wikidata": "Q12592810",
        "wikipedia": "ko:덕소삼패 나들목"
      }
    },
    {
      "type": "node",
      "id": 1985633286,
      "lat": 37.4365066,
      "lon": 127.0015032,
      "tags": {
        "highway": "motorway_junction",
        "name": "대공원",
        "name:ko": "대공원"
      }
    },
    {
      "type": "node",
      "id": 1986207080,
      "lat": 37.2218722,
      "lon": 126.9611053,
      "tags": {
        "highway": "motorway_junction",
        "name": "봉담",
        "name:en": "Bongdam",
        "name:ko": "봉담",
        "ref": "1",
        "wikidata": "Q12598573",
        "wikipedia": "ko:봉담 나들목"
      }
    },
    {
      "type": "node",
      "id": 1986207139,
      "lat": 37.228152,
      "lon": 126.9578348,
      "tags": {
        "highway": "motorway_junction",
        "name": "봉담",
        "name:en": "Bongdam",
        "name:ko": "봉담",
        "ref": "1",
        "wikidata": "Q12598573",
        "wikipedia": "ko:봉담 나들목"
      }
    },
    {
      "type": "node",
      "id": 1986207158,
      "lat": 37.2296658,
      "lon": 126.9567568,
      "tags": {
        "highway": "motorway_junction",
        "name": "봉담",
        "name:en": "Bongdam",
        "name:ko": "봉담",
        "ref": "1",
        "wikidata": "Q12598573",
        "wikipedia": "ko:봉담 나들목"
      }
    },
    {
      "type": "node",
      "id": 1986207176,
      "lat": 37.2305371,
      "lon": 126.9554254,
      "tags": {
        "highway": "motorway_junction",
        "name": "봉담",
        "name:en": "Bongdam",
        "name:ko": "봉담",
        "ref": "1",
        "wikidata": "Q12598573",
        "wikipedia": "ko:봉담 나들목"
      }
    },
    {
      "type": "node",
      "id": 2135060914,
      "lat": 37.5763798,
      "lon": 127.0343777,
      "tags": {
        "highway": "motorway_junction",
        "name": "마장",
        "name:ko": "마장",
        "ref": "9"
      }
    },
    {
      "type": "node",
      "id": 2139811760,
      "lat": 37.5523062,
      "lon": 126.9003312,
      "tags": {
        "highway": "motorway_junction"
      }
    },
    {
      "type": "node",
      "id": 2139811784,
      "lat": 37.5523747,
      "lon": 126.9007142,
      "tags": {
        "highway": "motorway_junction",
        "name": "성산대교북단"
      }
    },
    {
      "type": "node",
      "id": 2139811797,
      "lat": 37.55786,
      "lon": 126.8935403,
      "tags": {
        "highway": "motorway_junction",
        "name": "성산대교 북단",
        "ref": "8C"
      }
    },
    {
      "type": "node",
      "id": 2139867164,
      "lat": 37.558092,
      "lon": 126.8940258,
      "tags": {
        "highway": "motorway_junction",
        "name": "성산대교 북단",
        "ref": "8B"
      }
    },
    {
      "type": "node",
      "id": 2139867172,
      "lat": 37.5602282,
      "lon": 126.8909651,
      "tags": {
        "highway": "motorway_junction",
        "name": "성산대교 북단",
        "ref": "8B"
      }
    },
    {
      "type": "node",
      "id": 2139867194,
      "lat": 37.5558705,
      "lon": 126.8963449,
      "tags": {
        "highway": "motorway_junction",
        "name": "성산대교 북단",
        "ref": "8A"
      }
    },
    {
      "type": "node",
      "id": 2139941721,
      "lat": 37.5438813,
      "lon": 126.9264255,
      "tags": {
        "highway": "motorway_junction",
        "name": "서강대교 북단",
        "ref": "10"
      }
    },
    {
      "type": "node",
      "id": 2139941756,
      "lat": 37.5431443,
      "lon": 126.9303715,
      "tags": {
        "highway": "motorway_junction",
        "name": "서강대교 북단",
        "ref": "10"
      }
    },
    {
      "type": "node",
      "id": 2139941793,
      "lat": 37.5320058,
      "lon": 126.9489135,
      "tags": {
        "highway": "motorway_junction",
        "name": "원효대교 북단",
        "name:ko": "원효대교 북단",
        "ref": "12"
      }
    },
    {
      "type": "node",
      "id": 2139941819,
      "lat": 37.5400862,
      "lon": 126.9386933,
      "tags": {
        "highway": "motorway_junction",
        "name": "마포대교 북단",
        "ref": "11A"
      }
    },
    {
      "type": "node",
      "id": 2139941823,
      "lat": 37.5337488,
      "lon": 126.9452338,
      "tags": {
        "highway": "motorway_junction",
        "name": "원효로",
        "name:ko": "원효로",
        "ref": "11C"
      }
    },
    {
      "type": "node",
      "id": 2139941831,
      "lat": 37.5375943,
      "lon": 126.9420456,
      "tags": {
        "highway": "motorway_junction",
        "name": "마포대교 북단",
        "ref": "11B"
      }
    },
    {
      "type": "node",
      "id": 2139941882,
      "lat": 37.5369965,
      "lon": 126.9410896,
      "tags": {
        "highway": "motorway_junction",
        "name": "마포대교 북단",
        "ref": "11B"
      }
    },
    {
      "type": "node",
      "id": 2140316063,
      "lat": 37.5160691,
      "lon": 126.9798461,
      "tags": {
        "highway": "motorway_junction",
        "name": "동작대교 북단",
        "name:ko": "동작대교 북단",
        "ref": "14"
      }
    },
    {
      "type": "node",
      "id": 2140345666,
      "lat": 37.5459243,
      "lon": 127.0336295,
      "tags": {
        "highway": "motorway_junction",
        "name": "강변북로분기점",
        "name:ko": "강변북로분기점"
      }
    },
    {
      "type": "node",
      "id": 2140367675,
      "lat": 37.5293054,
      "lon": 126.9103959,
      "tags": {
        "highway": "motorway_junction",
        "name": "여의하류IC"
      }
    },
    {
      "type": "node",
      "id": 2141595983,
      "lat": 37.561498,
      "lon": 126.8881755,
      "tags": {
        "highway": "motorway_junction",
        "name": "한강공원입구",
        "name:ko": "한강공원입구",
        "ref": "H-3"
      }
    },
    {
      "type": "node",
      "id": 2141596006,
      "lat": 37.5734345,
      "lon": 126.8684717,
      "tags": {
        "highway": "motorway_junction",
        "name": "가양대교 북단",
        "ref": "6"
      }
    },
    {
      "type": "node",
      "id": 2141596017,
      "lat": 37.578478,
      "lon": 126.8591141,
      "tags": {
        "highway": "motorway_junction",
        "name": "가양대교북단",
        "ref": "6"
      }
    },
    {
      "type": "node",
      "id": 2141616459,
      "lat": 37.567046,
      "lon": 126.8560901,
      "tags": {
        "highway": "motorway_junction",
        "name": "가양대교남단",
        "name:ko": "가양대교남단"
      }
    },
    {
      "type": "node",
      "id": 2141616462,
      "lat": 37.5637587,
      "lon": 126.8623439,
      "tags": {
        "highway": "motorway_junction",
        "name": "가양대교남단",
        "name:ko": "가양대교남단"
      }
    },
    {
      "type": "node",
      "id": 2141616520,
      "lat": 37.5633748,
      "lon": 126.862834,
      "tags": {
        "highway": "motorway_junction",
        "name": "가양대교분기점"
      }
    },
    {
      "type": "node",
      "id": 2147567559,
      "lat": 37.5718233,
      "lon": 126.9215711,
      "tags": {
        "highway": "motorway_junction",
        "name": "연희",
        "name:ko": "연희",
        "ref": "2"
      }
    },
    {
      "type": "node",
      "id": 2147567567,
      "lat": 37.5651285,
      "lon": 126.9098761,
      "tags": {
        "highway": "motorway_junction",
        "name": "성산",
        "name:ko": "성산",
        "ref": "1"
      }
    },
    {
      "type": "node",
      "id": 2147567580,
      "lat": 37.5950604,
      "lon": 126.9491324,
      "tags": {
        "highway": "motorway_junction",
        "name": "홍은",
        "name:ko": "홍은",
        "ref": "4"
      }
    },
    {
      "type": "node",
      "id": 2147567601,
      "lat": 37.586592,
      "lon": 126.935487,
      "tags": {
        "highway": "motorway_junction",
        "name": "홍제",
        "name:ko": "홍제",
        "ref": "3"
      }
    },
    {
      "type": "node",
      "id": 2147578786,
      "lat": 37.5951352,
      "lon": 127.0404595,
      "tags": {
        "highway": "motorway_junction",
        "name": "월곡",
        "name:en": "Wolgok",
        "name:ko": "월곡",
        "ref": "8A"
      }
    },
    {
      "type": "node",
      "id": 2147578788,
      "lat": 37.6026892,
      "lon": 127.0343805,
      "tags": {
        "highway": "motorway_junction",
        "name": "하월곡분기점",
        "ref": "7"
      }
    },
    {
      "type": "node",
      "id": 2147578840,
      "lat": 37.6014956,
      "lon": 127.0397635,
      "tags": {
        "highway": "motorway_junction",
        "name": "월곡",
        "name:ko": "월곡",
        "ref": "8B"
      }
    },
    {
      "type": "node",
      "id": 2150015093,
      "lat": 37.3948749,
      "lon": 127.232872,
      "tags": {
        "highway": "motorway_junction",
        "name": "태전분기점",
        "name:en": "Taejeon JC",
        "name:ko": "태전분기점",
        "ref": "5A"
      }
    },
    {
      "type": "node",
      "id": 2150015148,
      "lat": 37.4168497,
      "lon": 127.1585025,
      "tags": {
        "highway": "motorway_junction",
        "name": "섬말",
        "name:en": "Seommal",
        "name:ko": "섬말",
        "ref": "3"
      }
    },
    {
      "type": "node",
      "id": 2150015202,
      "lat": 37.3816759,
      "lon": 127.2897112,
      "tags": {
        "highway": "motorway_junction",
        "name": "쌍동분기점",
        "name:en": "Ssangdong JC",
        "name:ko": "쌍동분기점",
        "ref": "6"
      }
    },
    {
      "type": "node",
      "id": 2150015203,
      "lat": 37.3598561,
      "lon": 127.3667575,
      "tags": {
        "highway": "motorway_junction",
        "name": "열미",
        "name:ko": "열미",
        "ref": "8"
      }
    },
    {
      "type": "node",
      "id": 2244637670,
      "lat": 37.5033546,
      "lon": 127.0185355,
      "tags": {
        "highway": "motorway_junction",
        "name": "반포IC",
        "name:en": "Banpo Interchange",
        "name:ko": "반포IC",
        "noref": "yes",
        "old_name": "51",
        "short_name": "반포IC",
        "short_name:en": "Banpo IC"
      }
    },
    {
      "type": "node",
      "id": 2352518082,
      "lat": 37.5248972,
      "lon": 126.8314189,
      "tags": {
        "highway": "motorway_junction",
        "name": "신월",
        "name:en": "Sinwol",
        "name:ko": "신월",
        "ref": "7",
        "wikidata": "Q22974303",
        "wikipedia": "ko:신월 나들목"
      }
    },
    {
      "type": "node",
      "id": 2370166905,
      "lat": 37.2658138,
      "lon": 127.1916173,
      "tags": {
        "highway": "motorway_junction",
        "name": "서용인분기점",
        "name:en": "West Yongin Junction",
        "name:ko": "서용인분기점",
        "ref": "16",
        "wikidata": "Q28699989",
        "wikipedia": "ko:서용인 분기점"
      }
    },
    {
      "type": "node",
      "id": 2614487887,
      "lat": 37.5436385,
      "lon": 126.8927927,
      "tags": {
        "highway": "motorway_junction",
        "name": "한강공원입구",
        "name:ko": "한강공원입구",
        "ref": "F-2"
      }
    },
    {
      "type": "node",
      "id": 2614487899,
      "lat": 37.5476045,
      "lon": 126.8887979,
      "tags": {
        "alt_name": "성산대교분기점",
        "highway": "motorway_junction",
        "name": "성산대교남단",
        "name:ko": "성산대교남단"
      }
    },
    {
      "type": "node",
      "id": 2618197768,
      "lat": 37.4696776,
      "lon": 126.9831179,
      "tags": {
        "highway": "motorway_junction",
        "name": "사당IC",
        "name:en": "Sadang IC",
        "name:ko": "사당IC"
      }
    },
    {
      "type": "node",
      "id": 2618210025,
      "lat": 37.4699109,
      "lon": 126.9489342,
      "tags": {
        "highway": "motorway_junction",
        "name": "관악IC",
        "name:en": "Gwanak IC",
        "name:ja": "冠岳IC",
        "name:ko": "관악IC"
      }
    },
    {
      "type": "node",
      "id": 2814707110,
      "lat": 37.4825089,
      "lon": 126.8746243,
      "tags": {
        "highway": "motorway_junction"
      }
    },
    {
      "type": "node",
      "id": 2817618262,
      "lat": 37.4613381,
      "lon": 127.041805,
      "tags": {
        "highway": "motorway_junction",
        "name": "서울만남의광장휴게소",
        "noref": "yes"
      }
    },
    {
      "type": "node",
      "id": 2820314812,
      "lat": 37.5393528,
      "lon": 126.8898241,
      "tags": {
        "highway": "motorway_junction"
      }
    },
    {
      "type": "node",
      "id": 2820817913,
      "lat": 37.403848,
      "lon": 127.0965164,
      "tags": {
        "highway": "motorway_junction",
        "name": "판교",
        "name:en": "Pangyo",
        "name:ko": "판교",
        "ref": "47"
      }
    },
    {
      "type": "node",
      "id": 2820956866,
      "lat": 37.3592413,
      "lon": 127.0633424,
      "tags": {
        "highway": "motorway_junction",
        "name": "서분당(고기)",
        "name:en": "West Bundang (Gogi)",
        "name:ko": "서분당(고기)",
        "ref": "4",
        "wikidata": "Q4742936",
        "wikipedia": "ko:서분당 나들목"
      }
    },
    {
      "type": "node",
      "id": 2821340850,
      "lat": 37.2900617,
      "lon": 127.1028813,
      "tags": {
        "highway": "motorway_junction",
        "name": "신갈분기점",
        "name:en": "Singal JC",
        "name:ko": "신갈분기점",
        "ref": "13B"
      }
    },
    {
      "type": "node",
      "id": 2849867812,
      "lat": 37.649523,
      "lon": 127.1242367,
      "tags": {
        "highway": "motorway_junction",
        "name": "별내",
        "name:en": "Byeollae",
        "name:ko": "별내",
        "ref": "13",
        "wikidata": "Q16096603",
        "wikipedia": "ko:별내 나들목"
      }
    },
    {
      "type": "node",
      "id": 3016908836,
      "lat": 37.5170361,
      "lon": 127.0808262,
      "tags": {
        "highway": "motorway_junction",
        "name": "종합운동장 분기점"
      }
    },
    {
      "type": "node",
      "id": 3194526203,
      "lat": 37.4879974,
      "lon": 126.8727178,
      "tags": {
        "highway": "motorway_junction",
        "name": "광명교",
        "name:ko": "광명교"
      }
    },
    {
      "type": "node",
      "id": 3200324836,
      "lat": 37.393346,
      "lon": 126.8384192,
      "tags": {
        "destination": "100;일산,판교",
        "highway": "motorway_junction",
        "name": "도리분기점",
        "name:ko": "도리분기점",
        "ref": "4"
      }
    },
    {
      "type": "node",
      "id": 3201248081,
      "lat": 37.3989255,
      "lon": 126.8449976,
      "tags": {
        "highway": "motorway_junction",
        "name": "도리분기점",
        "name:en": "Dori Junction",
        "name:ko": "도리분기점",
        "ref": "28-1",
        "wikidata": "Q12592984",
        "wikipedia": "ko:도리 분기점"
      }
    },
    {
      "type": "node",
      "id": 3201248106,
      "lat": 37.3943828,
      "lon": 126.8502948,
      "tags": {
        "highway": "motorway_junction",
        "name": "도리분기점",
        "name:en": "Dori Junction",
        "name:ko": "도리분기점",
        "ref": "28-1",
        "wikidata": "Q12592984",
        "wikipedia": "ko:도리 분기점"
      }
    },
    {
      "type": "node",
      "id": 3252208369,
      "lat": 37.5994748,
      "lon": 126.835799,
      "tags": {
        "highway": "motorway_junction",
        "name": "행주산성 분기점",
        "name:el": "Κόμβος (JC) Χένγκτζουσανσονγκ",
        "name:en": "Haengjusanseong JC",
        "name:ko": "행주산성 분기점",
        "wikidata": "Q109461757",
        "wikipedia": "ko:행주산성 분기점"
      }
    },
    {
      "type": "node",
      "id": 3529515276,
      "lat": 37.3242285,
      "lon": 127.0757724,
      "tags": {
        "highway": "motorway_junction"
      }
    },
    {
      "type": "node",
      "id": 3530861988,
      "lat": 37.3200009,
      "lon": 127.0543804,
      "tags": {
        "highway": "motorway_junction",
        "name": "서수지",
        "name:en": "West Suji",
        "name:ko": "서수지",
        "ref": "3",
        "wikidata": "Q12601006",
        "wikipedia": "ko:서수지 나들목"
      }
    },